row_id,facility_id,facility_address,facility_city,facility_state,facility_zip,lat,lng,id
DA01KEPWCF045,FA0179718,346 N FORD BLVD,LOS ANGELES,CA,90022-1121,34.032087,-118.168932,1
DA006DSLSF006,FA0251976,541 S SPRING ST # 114,LOS ANGELES,CA,90013,34.04657,-118.2507,2
DA00GQVTQF008,FA0240579,4030 S CENTINELA AVE,LOS ANGELES,CA,90066,33.998875,-118.429599,3
DA00RZ5GNF008,FA0165233,13350 WASHINGTON BLVD,LOS ANGELES,CA,90066,33.992318,-118.443552,4
DA01T9PYHF032,FA0222724,3109 N SAN FERNANDO RD,LOS ANGELES,CA,90065,34.115162,-118.245892,5
DA01UVABZF014,FA0224041,5621 N FIGUEROA ST,LOS ANGELES,CA,90042,34.10938,-118.1936,6
DA02LQIHSF006,FA0006557,700 W CESAR E CHAVEZ AVE,LOS ANGELES,CA,90012,34.06081,-118.244369,7
DA045RMSEF006,FA0163712,7075 W SUNSET BLVD,LOS ANGELES,CA,90028,34.09813,-118.34386,8
DA0A3MSEBF035,FA0069277,9616 W PICO BLVD,LOS ANGELES,CA,90035,34.05497,-118.39811,9
DA0AGX00EF023,FA0159479,2500 S CENTRAL AVE,LOS ANGELES,CA,90011,34.01966,-118.25438,10
DA0AOKUROF040,FA0053921,9860 NATIONAL BLVD,LOS ANGELES,CA,90034,34.030708,-118.401697,11
DA0AS2NNXF006,FA0249129,1320 E 41ST ST,LOS ANGELES,CA,90011,34.00903,-118.25132,12
DA0BCQA0KF014,FA0033822,3400 W 8TH ST,LOS ANGELES,CA,90005,34.05755,-118.30334,13
DA0BI1CV9F029,FA0028655,1457 E FLORENCE AVE STE #109,LOS ANGELES,CA,90001,33.97506,-118.24816,14
DA0BWPJYDF014,FA0252763,524 1/2 N LA BREA AVE,LOS ANGELES,CA,90036,34.08103,-118.34385,15
DA0CCYKF7F014,FA0059112,419 N FAIRFAX AVE,LOS ANGELES,CA,90036,34.07859,-118.36153,16
DA0CP0099F007,FA0178325,11127 PALMS BLVD,LOS ANGELES,CA,90034,34.01995,-118.42101,17
DA0CS19POF009,FA0249293,10401 VENICE BLVD # 101B,LOS ANGELES,CA,90034,34.02052,-118.404333,18
DA0E1TMOAF007,FA0043982,11355 W OLYMPIC BLVD STE #302,LOS ANGELES,CA,90064,34.03766,-118.44264,19
DA0E5RCVYF023,FA0242118,261 S KENMORE ST,LOS ANGELES,CA,90004,34.07559,-118.29687,20
DA0EJI0SBF029,FA0012634,1603 E 99TH ST,LOS ANGELES,CA,90002,33.94675,-118.2458,21
DA0EWD5BMF014,FA0250572,6333 W 3RD ST STE 514,LOS ANGELES,CA,90036,34.07135,-118.36031,22
DA0EYKXIVF006,FA0243020,3063 W 8TH ST,LOS ANGELES,CA,90005,34.05789,-118.29364,23
DA0FTVWMZF014,FA0069365,4020 S MARLTON AVE,LOS ANGELES,CA,90008,34.01159,-118.338191,24
DA0HY84M8F023,FA0223991,1824 N VERMONT AVE,LOS ANGELES,CA,90027-4213,34.1044,-118.29162,25
DA0I9JFGAF034,FA0043096,350 S GRAND AVE # # R1A,LOS ANGELES,CA,90071,34.05173,-118.2522,26
DA0IUFFS0F007,FA0012108,735 S FIGUEROA ST STE #305,LOS ANGELES,CA,90017,34.04878,-118.26079,27
DA0IZ0ZD9F033,FA0257578,8911 S CENTRAL AVE,LOS ANGELES,CA,90002,33.95558,-118.2565,28
DA0J3TQMSF006,FA0019053,6504 HOLLYWOOD BLVD,LOS ANGELES,CA,90028,34.10121,-118.33182,29
DA0JHQF80F043,FA0024368,3400 S FIGUEROA ST,LOS ANGELES,CA,90089,34.01943,-118.28144,30
DA0JHWAUWF033,FA0158536,901 W OLYMPIC BLVD,LOS ANGELES,CA,90015,34.04576,-118.26609,31
DA0JINIXDF014,FA0023456,1091 S HOOVER ST,LOS ANGELES,CA,90006,34.05184,-118.28455,32
DA0JJYLCKF007,FA0036318,328 E 1ST ST,LOS ANGELES,CA,90012,34.04967,-118.24011,33
DA0JKS2CEF014,FA0166527,300 S GRAND AVE # LP100,LOS ANGELES,CA,90071,34.05283,-118.25116,34
DA0KD4NH8F030,FA0046900,1387 WESTWOOD BLVD,LOS ANGELES,CA,90024,34.05552,-118.44225,35
DA0MKT1QPF007,FA0226285,5026 S AVALON BLVD,LOS ANGELES,CA,90011-4005,33.996765,-118.265028,36
DA0M0NN2GF006,FA0180487,450 S WESTERN AVE,LOS ANGELES,CA,90020,34.06562,-118.30887,37
DA0MPPUGKF007,FA0245889,8823 W PICO BLVD,LOS ANGELES,CA,90035,34.05505,-118.3843,38
DA0MVVVKTF014,FA0008671,2701 BELDEN DR,LOS ANGELES,CA,90068,34.120001,-118.321525,39
DA0N4FWJSF023,FA0043604,231 S VERMONT AVE,LOS ANGELES,CA,90004,34.0701,-118.29175,40
DA0N65RGWF006,FA0239918,6741 1/2 W HOLLYWOOD BLVD,LOS ANGELES,CA,90028,34.10172,-118.33718,41
DA0NAYAV0F006,FA0049800,701 W CESAR E CHAVEZ AVE,LOS ANGELES,CA,90012,34.06107,-118.24412,42
DA0NDSO00F006,FA0247867,735 S VERMONT AVE,LOS ANGELES,CA,90005,34.05856,-118.29171,43
DA0NSNHQSF007,FA0258944,3939 S FIGUEROA ST,LOS ANGELES,CA,90037,34.01173,-118.28296,44
DA0O2UIXYF006,FA0067507,241 E 7TH ST,LOS ANGELES,CA,90014,34.04291,-118.2498,45
DA0O381B8F033,FA0171391,735 E 12TH ST # 401,LOS ANGELES,CA,90021,34.03328,-118.25222,46
DA0OCHKVDF006,FA0007191,9419 S SAN PEDRO ST,LOS ANGELES,CA,90003,33.95041,-118.26971,47
DA0OP3ZP1F023,FA0239003,300 WORLD WAY,LOS ANGELES,CA,90045,33.944916,-118.407714,48
DA0ORYOWMF006,FA0057886,1513 S GARFIELD AVE,LOS ANGELES,CA,90022,34.00855,-118.13143,49
DA0P2RNC2F006,FA0065297,2835 W JAMES M WOOD BLVD,LOS ANGELES,CA,90005,34.05602,-118.29015,50
DA0PQO0D7F007,FA0163085,3650 MARTIN LUTHER KING BLVD STE 139,LOS ANGELES,CA,90008,34.01143,-118.33654,51
DA0PZH7UYF023,FA0023437,1700 W 6TH ST,LOS ANGELES,CA,90017,34.05781,-118.2712,52
DA0Q53DEKF007,FA0013765,1920 HYPERION AVE,LOS ANGELES,CA,90027,34.097518,-118.275203,53
DA0QNXQCKF025,FA0068768,7229 S FIGUEROA ST,LOS ANGELES,CA,90003,33.97447,-118.28276,54
DA0REBMQLF007,FA0256544,6333 W 3RD ST # 130,LOS ANGELES,CA,90036,34.0722,-118.36037,55
DA0RINRSGF014,FA0021799,1166 S SOTO ST,LOS ANGELES,CA,90023,34.02828,-118.2191,56
DA0RU6Y0IF040,FA0025298,11740 SAN VICENTE BLVD STE 114,LOS ANGELES,CA,90049,34.053083,-118.466904,57
DA0RUEJCCF033,FA0050638,2522 1/2 E 1ST ST,LOS ANGELES,CA,90033,34.04296,-118.20785,58
DA0RZE3ZIF023,FA0042714,1309 S ALVARADO ST,LOS ANGELES,CA,90006,34.04703,-118.28294,59
DA0S6K72UF006,FA0043262,3500 W 6TH ST STE #220,LOS ANGELES,CA,90010,34.06349,-118.29793,60
DA0TJHZEBF035,FA0061544,8154 W SUNSET BLVD,LOS ANGELES,CA,90046,34.09781,-118.3666,61
DA0U0NDDPF007,FA0035062,1779 WESTWOOD BLVD STE #A,LOS ANGELES,CA,90024,34.05042,-118.4378,62
DA0U8AQ7NF023,FA0252110,626 S SPRING ST STE B,LOS ANGELES,CA,90014,34.04516,-118.25148,63
DA0UDKRBVF033,FA0010013,4228 S AVALON BLVD,LOS ANGELES,CA,90011,34.00673,-118.26504,64
DA0USJFBSF023,FA0171210,4032 BEVERLY BLVD,LOS ANGELES,CA,90004,34.07617,-118.29694,65
DA0WLOWMEF033,FA0244533,952 S BROADWAY WAY,LOS ANGELES,CA,90015,34.04107,-118.25702,66
DA0XQVMTNF033,FA0252769,1030 W MARTIN LUTHER KING JR BLVD STE 108,LOS ANGELES,CA,90037-1867,34.01077,-118.29261,67
DA0YMH65IF006,FA0013436,6119 S FIGUEROA ST,LOS ANGELES,CA,90003,33.98363,-118.28293,68
DA0ZJ7SBOF007,FA0051353,1010 BROXTON AVE,LOS ANGELES,CA,90024,34.06223,-118.44667,69
DA0ZJRXGXF039,FA0056181,601 W 7TH ST,LOS ANGELES,CA,90017,34.0475,-118.25665,70
DA0ZWW3QVF007,FA0009907,11645 SAN VICENTE BLVD,LOS ANGELES,CA,90045,34.05384,-118.46413,71
DA0ZYC8EXF007,FA0006292,1515 E WESTWOOD BLVD,LOS ANGELES,CA,90024,34.05336,-118.44017,72
DA10QTELIF026,FA0239319,7275 MELROSE AVE,LOS ANGELES,CA,90046,34.0836,-118.34804,73
DA1170451F014,FA0258520,654 N HOOVER ST,LOS ANGELES,CA,90004,34.08299,-118.28436,74
DA1177658F014,FA0160226,1945 S HILL ST,LOS ANGELES,CA,90007,34.03102,-118.26787,75
DA11G6ZZAF014,FA0172273,6464 W SUNSET BLVD #100,LOS ANGELES,CA,90028,34.09782,-118.33125,76
DA14DQOQUF006,FA0005172,1050 S HILL ST,LOS ANGELES,CA,90014,34.04097,-118.25892,77
DA1A7QTEOF033,FA0059266,5112 HOLLYWOOD BLVD,LOS ANGELES,CA,90027,34.10139,-118.30125,78
DA1CD3LD9F026,FA0048528,650 S HILL ST STE S2,LOS ANGELES,CA,90014,34.04623,-118.25392,79
DA1CKOUUEF029,FA0025747,6801 HOLLYWOOD BLVD STE #321,LOS ANGELES,CA,90028,34.10229,-118.33907,80
DA1CLG6EYF006,FA0071199,3959 WILSHIRE BLVD STE B-7,LOS ANGELES,CA,90010,34.06203,-118.31329,81
DA1D988FDF023,FA0007749,1209 W VENICE BLVD,LOS ANGELES,CA,90006,34.042685,-118.281301,82
DA1EEC52FF006,FA0177880,3055 W 7TH ST,LOS ANGELES,CA,90005,34.05992,-118.2908,83
DA1F9FYFDF034,FA0058145,1050 S HILL ST,LOS ANGELES,CA,90015,34.04038,-118.25933,84
DA1G0ANIPF007,FA0258909,701 W CESAR E. CHAVEZ AVE # 107,LOS ANGELES,CA,90012-2184,34.06107,-118.24412,85
DA1HHTUVIF007,FA0222848,5103 S FIGUEROA ST,LOS ANGELES,CA,90037,33.99643,-118.28276,86
DA1HZOXJLF007,FA0167182,6116 1/2 PICO BLVD,LOS ANGELES,CA,90035,34.05275,-118.37445,87
DA1IRKOIEF014,FA0222364,3407 W 6TH ST # 100C,LOS ANGELES,CA,90020,34.06373,-118.29596,88
DA1MFL8T7F007,FA0240043,1957 E FLORENCE AVE,LOS ANGELES,CA,90001,33.9748,-118.235352,89
DA1N0KEJHF023,FA0064513,8322 S AVALON BLVD,LOS ANGELES,CA,90003,33.963097,-118.264945,90
DA1NATEAVF023,FA0262129,1498 W SUNSET BLVD,LOS ANGELES,CA,90026,34.0756,-118.25514,91
DA1S0OP9UF006,FA0137956,380 WORLD WAY T49,LOS ANGELES,CA,90045,33.94354,-118.4085,92
DA1SXZMUIF025,FA0257524,1523 GRIFFITH PARK BLVD,LOS ANGELES,CA,90026,34.090674,-118.277184,93
DA1TVVXVEF007,FA0260239,1854 SAWTELLE BLVD STE 101,LOS ANGELES,CA,90025-5516,34.04272,-118.44498,94
DA1U9CDDUF033,FA0142676,10201 W PICO BLVD,LOS ANGELES,CA,90064-2606,34.04994,-118.41129,95
DA1UPYMHJF035,FA0160468,1554 W SUNSET BLVD,LOS ANGELES,CA,90026,34.07639,-118.25699,96
DA1WG6WIYF007,FA0024862,901 CYPRESS AVE,LOS ANGELES,CA,90065,34.09255,-118.22452,97
DA1XYDOFGF007,FA0245012,3456 MOTOR AVE # 104,LOS ANGELES,CA,90034,34.02698,-118.40853,98
DA1Y5UJQJF005,FA0137375,621 S WESTERN AVE G01,LOS ANGELES,CA,90005,34.06273,-118.30946,99
DA23MHSTFF006,FA0038660,10011 S AVALON BLVD,LOS ANGELES,CA,90003,33.945227,-118.265352,100
DA2A8HGJDF014,FA0032522,6721 HOLLYWOOD BLVD,LOS ANGELES,CA,90028,34.101721,-118.336712,101
DA2BL3UHPF046,FA0046269,420 S ALVARADO ST,LOS ANGELES,CA,90057,34.06099,-118.27381,102
DA2BVF0JOF029,FA0221455,5900 W SUNSET BLVD,LOS ANGELES,CA,90028-6505,34.09788,-118.31816,103
DA2BVRRZSF034,FA0047444,621 S BROADWAY UNIT G,LOS ANGELES,CA,90014,34.04625,-118.25287,104
DA2DLOSDTF035,FA0159973,4005 CRENSHAW BLVD,LOS ANGELES,CA,90008,34.01194,-118.33541,105
DA2ELN0EDF037,FA0071291,3122 S SEPULVEDA BLVD,LOS ANGELES,CA,90034,34.0261,-118.42752,106
DA2ETXIX9F007,FA0047654,761 S VERMONT AVE,LOS ANGELES,CA,90005,34.05809,-118.29183,107
DA2F3PUJ1F006,FA0246040,3109 W OLYMPIC BLVD,LOS ANGELES,CA,90006,34.05277,-118.3036,108
DA2FRCNQ7F005,FA0043168,380 WORLD WAY 5TH FLR,LOS ANGELES,CA,90041,33.9453,-118.4014,109
DA2HHJVKHF014,FA0137032,702 S SPRING ST,LOS ANGELES,CA,90014,34.04425,-118.2523,110
DA2HN9QNMF014,FA0258509,1265 WESTWOOD BLVD,LOS ANGELES,CA,90024,34.05738,-118.44324,111
DA2HOUI27F014,FA0245108,100 N LA CIENEGA BLVD # E-3,LOS ANGELES,CA,90048,34.074403,-118.37633,112
DA2HYP1XZF033,FA0068597,2619 CRENSHAW BLVD,LOS ANGELES,CA,90016,34.031939,-118.33534,113
DA2JJKMKVF006,FA0250607,1001 S VERMONT AVE # 108,LOS ANGELES,CA,90006-2770,34.05236,-118.29185,114
DA2JK2O3BF014,FA0012900,8829 W PICO BLVD,LOS ANGELES,CA,90035,34.05507,-118.38442,115
DA2JL0ZZBF032,FA0060430,1150 S BEVERLY DR,LOS ANGELES,CA,90035,34.05687,-118.3964,116
DA2LOBBARF014,FA0202736,450 S WESTERN AVE # 105,LOS ANGELES,CA,90020,34.06562,-118.30887,117
DA2MCQIIQF033,FA0028578,2959 CRENSHAW BLVD,LOS ANGELES,CA,90016,34.02787,-118.335292,118
DA2NNGCDPF005,FA0052106,1801 E FLORENCE AVE,LOS ANGELES,CA,90001,33.974924,-118.240935,119
DA2OOA7COF014,FA0245795,3377 WILSHIRE BLVD STE 104,LOS ANGELES,CA,90010,34.06193,-118.29742,120
DA2PAVH9TF007,FA0251107,10543 W PICO BLVD,LOS ANGELES,CA,90064,34.04459,-118.42037,121
DA2QKZNDFF007,FA0020441,3140 N GLENDALE BLVD,LOS ANGELES,CA,90039,34.116631,-118.261893,122
DA2R0CYHQF029,FA0160199,2861 W SUNSET BLVD,LOS ANGELES,CA,90026,34.08287,-118.27296,123
DA2RT4OGTF033,FA0174545,200 WORLD WAY # 225,LOS ANGELES,CA,90045,33.94558,-118.4039,124
DA2RLHCJ5F007,FA0159608,2910 DIVISION ST,LOS ANGELES,CA,90065,34.10271,-118.23586,125
DA2TFOSP7F035,FA0007771,236 N LARCHMONT BLVD,LOS ANGELES,CA,90004,34.07573,-118.32343,126
DA2TIP00BF033,FA0049844,10211 S AVALON BLVD,LOS ANGELES,CA,90003,33.943385,-118.26535,127
DA2TNH1GZF040,FA0244317,8000 W SUNSET BLVD,LOS ANGELES,CA,90046,34.09783,-118.36466,128
DA2UOAFPOF006,FA0249147,2215 S VERMONT AVE #101 -102,LOS ANGELES,CA,90007,34.03588,-118.29189,129
DA2VRVWI6F006,FA0249395,5101 S FIGUEROA ST,LOS ANGELES,CA,90037-3347,33.99632,-118.28289,130
DA2XZ9CO7F006,FA0029677,1250 S VERMONT AVE,LOS ANGELES,CA,90006,34.04762,-118.2914,131
DA2YEUN6UF007,FA0260017,700 WORLD WAY # 1104,LOS ANGELES,CA,90045,33.942995,-118.400297,132
DA2ZFAELCF011,FA0157974,4501 HUNTINGTON DR N,LOS ANGELES,CA,90032,34.08369,-118.18867,133
DA2ZP5IHDF014,FA0165888,840 S SPRING ST,LOS ANGELES,CA,90014,34.04233,-118.25416,134
DA2ZUJ53ZF035,FA0006372,8448 LINCOLN BLVD,LOS ANGELES,CA,90045,33.960965,-118.420013,135
DA30GN7WXF023,FA0023453,3250 W OLYMPIC BLVD STE 311,LOS ANGELES,CA,90006,34.05244,-118.30766,136
DA30PTT1IF035,FA0247827,4501 MELROSE AVE,LOS ANGELES,CA,90029,34.083728,-118.298171,137
DA3200MN8F023,FA0203705,10628 S SAN PEDRO ST,LOS ANGELES,CA,90003-4934,33.93942,-118.26934,138
DA32JQHFYF032,FA0250009,1300 W OLYMPIC BLVD # 102A,LOS ANGELES,CA,90015,34.04728,-118.27036,139
DA33WJOEEF029,FA0248577,510 W 7TH ST # 107,LOS ANGELES,CA,90014-2502,34.04671,-118.25598,140
DA35UX0ZNF007,FA0160896,7307 N FIGUEROA ST #202,LOS ANGELES,CA,90041,34.13532,-118.18811,141
DA36U0IHQF023,FA0034762,2112 BEVERLY BLVD,LOS ANGELES,CA,90057,34.06664,-118.27044,142
DA39FIZW1F007,FA0033203,700 CYPRESS AVE,LOS ANGELES,CA,90065,34.09093,-118.2237,143
DA3A1YJB4F027,FA0151573,928 S WESTERN AVE STE 125,LOS ANGELES,CA,90006,34.05485,-118.30886,144
DA3BVIBTNF014,FA0244716,2844 WABASH AVE,LOS ANGELES,CA,90033,34.049734,-118.196722,145
DA3DK2PLPF027,FA0038815,5640 W ADAMS BLVD,LOS ANGELES,CA,90016,34.03225,-118.3663,146
DA3ETVYNGF004,FA0037462,1820 MARENGO ST,LOS ANGELES,CA,90033,34.05809,-118.21128,147
DA3FO8E2EF006,FA0033715,801 S VERMONT AVE # #B,LOS ANGELES,CA,90005,34.05755,-118.29182,148
DA3FUVLQFF006,FA0261905,4114 SANTA MONICA BLVD,LOS ANGELES,CA,90029,34.091777,-118.2822,149
DA3FYYTMMF042,FA0065840,402 E 2ND ST,LOS ANGELES,CA,90012,34.04695,-118.2392,150
DA3HB8ATKF044,FA0034925,1900 N HILLHURST AVE,LOS ANGELES,CA,90027,34.105584,-118.287223,151
DA3HNEED9F014,FA0159461,500 WORLD WAY,LOS ANGELES,CA,90045,33.94251,-118.405071,152
DA3HYLBGIF027,FA0028554,1900 N HIGHLAND AVE,LOS ANGELES,CA,90068,34.10562,-118.33728,153
DA3IUWW67F014,FA0151579,621 S WESTERN AVE 103,LOS ANGELES,CA,90005,34.06273,-118.30946,154
DA3K0CC9NF029,FA0261780,301 S WESTERN AVE # 201,LOS ANGELES,CA,90020,34.06846,-118.30954,155
DA3LRWNQ5F023,FA0026579,2323 W OLYMPIC BLVD,LOS ANGELES,CA,90006,34.0525,-118.28312,156
DA3TD6ZXHF007,FA0037779,1220 FIRESTONE BLVD,LOS ANGELES,CA,90001,33.95987,-118.25268,157
DA3TYXBFQF006,FA0261818,1552 N CAHUENGA BLVD,LOS ANGELES,CA,90028,34.09946,-118.32934,158
DA3U3LHV5F006,FA0175505,3010 E 1ST ST,LOS ANGELES,CA,90063,34.04019,-118.20206,159
DA3UE9NPZF035,FA0247933,1716 N HIGHLAND AVE,LOS ANGELES,CA,90028,34.10217,-118.3385,160
DA3X7RIM0F007,FA0225945,1774 E FLORENCE AVE,LOS ANGELES,CA,90001,33.974523,-118.240811,161
DA3ZFW7DDF014,FA0073180,11951 SANTA MONICA BLVD,LOS ANGELES,CA,90025,34.04143,-118.46153,162
DA3ZLHEKAF035,FA0025318,2847 S CRENSHAW BLVD,LOS ANGELES,CA,90016,34.02983,-118.33534,163
DA40Z0LVXF006,FA0203360,3680 WILSHIRE BLVD # 503,LOS ANGELES,CA,90010-2707,34.06149,-118.30603,164
DA41R0PBSF007,FA0048491,1389 WESTWOOD BLVD,LOS ANGELES,CA,90024,34.055395,-118.442042,165
DA4ANPNVTF023,FA0044813,310 S ROBERTSON BLVD,LOS ANGELES,CA,90048,34.07318,-118.38361,166
DA4EEBRERF006,FA0249040,534 S WESTERN AVE,LOS ANGELES,CA,90020,34.06427,-118.3089,167
DA4EWPA9DF006,FA0224617,416 S SPRING ST,LOS ANGELES,CA,90013,34.04837,-118.24848,168
DA4F0HIXHF053,FA0005152,5469 W ADAMS BLVD,LOS ANGELES,CA,90016,34.03258,-118.35716,169
DA4FOPVTIF035,FA0010466,5176 WHITTIER BLVD,LOS ANGELES,CA,90022,34.020309,-118.157788,170
DA4FUGP4EF014,FA0063643,10311 AVALON BLVD,LOS ANGELES,CA,90003,33.942266,-118.265626,171
DA4GOKY21F039,FA0051572,3655 S GRAND AVE STE C-4,LOS ANGELES,CA,90007,34.01726,-118.27819,172
DA4IX1VGEF029,FA0164911,1103 ABBOT KINNEY BLVD,LOS ANGELES,CA,90291,33.991853,-118.470291,173
DA4K1QYUOF014,FA0177600,12746 JEFFERSON BLVD # 1120,LOS ANGELES,CA,90094,33.97756,-118.41709,174
DA4LBIYX6F023,FA0026316,1912 S LA BREA AVE,LOS ANGELES,CA,90016,34.03989,-118.34751,175
DA4LONXIQF006,FA0056805,3100 BEVERLY BLVD,LOS ANGELES,CA,90057,34.071774,-118.282464,176
DA4MEA4P0F023,FA0011447,4918 W SUNSET BLVD,LOS ANGELES,CA,90027,34.09777,-118.29693,177
DA4MIQUMJF014,FA0013762,613 S GRAND AVE,LOS ANGELES,CA,90017,34.04842,-118.25576,178
DA4NESEUYF007,FA0066195,1670 N VERMONT AVE,LOS ANGELES,CA,90027,34.10148,-118.29167,179
DA4QGTM0UF004,FA0067167,3014 W 7TH ST,LOS ANGELES,CA,90005,34.05964,-118.28968,180
DA4RK1IWYF027,FA0163342,1601 E IMPERIAL HWY STE 101,LOS ANGELES,CA,90059,33.929677,-118.245832,181
DA4RNYNQJF006,FA0065592,320 S ROBERTSON BLVD,LOS ANGELES,CA,90048,34.07292,-118.38362,182
DA4SD5FTKF007,FA0062487,10445 VENICE BLVD,LOS ANGELES,CA,90034,34.02025,-118.40511,183
DA4SFVGTPF006,FA0065461,5707 N FIGUEROA ST,LOS ANGELES,CA,90042,34.10985,-118.19264,184
DA4SKE0AQF006,FA0251580,4100 BROADWAY,LOS ANGELES,CA,90037-2221,34.00871,-118.27826,185
DA4TK2EC2F027,FA0177473,1277 W JEFFERSON BLVD,LOS ANGELES,CA,90007,34.02564,-118.29408,186
DA4TU9JVKF033,FA0033170,4139 E CITY TERRACE DR,LOS ANGELES,CA,90063,34.056328,-118.176556,187
DA4VII5MLF025,FA0008131,11301 W OLYMPIC BLVD STE 124,LOS ANGELES,CA,90064,34.03819,-118.44181,188
DA50M0SKPF034,FA0167282,12057 WILSHIRE BLVD,LOS ANGELES,CA,90025-1201,34.04495,-118.467,189
DA50QWQRXF044,FA0012493,2801 S CRENSHAW BLVD,LOS ANGELES,CA,90016,34.03093,-118.33534,190
DA53WD0ZSF007,FA0011774,9786 W PICO BLVD,LOS ANGELES,CA,90035,34.05395,-118.40168,191
DA5AXZLJEF014,FA0021939,1275 WESTWOOD BLVD,LOS ANGELES,CA,90024,34.05722,-118.44315,192
DA5COZVNTF033,FA0046123,1529 N LA BREA AVE,LOS ANGELES,CA,90028,34.09877,-118.34456,193
DA5CRECJ1F007,FA0261686,1225 W VENICE BLVD,LOS ANGELES,CA,90006,34.04296,-118.2815,194
DA5DPTTXEF007,FA0023138,1442 WESTWOOD BLVD,LOS ANGELES,CA,90024,34.05459,-118.44091,195
DA5EUFEHAF033,FA0069598,9824 S BROADWAY,LOS ANGELES,CA,90003,33.94664,-118.278,196
DA5GWSTCUF014,FA0029453,7011 MELROSE AVE,LOS ANGELES,CA,90038,34.08352,-118.34295,197
DA5ILWHPRF006,FA0049257,711 N MAIN ST,LOS ANGELES,CA,90012,34.05862,-118.23772,198
DA5ITD3XMF014,FA0252168,10960 SHERMAN WAY,LOS ANGELES,CA,91505,34.2011,-118.3698,199
DA5JEKL7BF023,FA0163578,600 S COMMONWEALTH AVE STE 100,LOS ANGELES,CA,90005,34.06327,-118.28508,200
DA5KTE6FSF033,FA0022506,5257 W ADAMS BLVD,LOS ANGELES,CA,90016,34.03258,-118.35692,201
DA5M7WIBUF007,FA0172295,11301 W OLYMPIC BLVD,LOS ANGELES,CA,90064,34.03819,-118.44181,202
DA5MIUU8UF032,FA0249190,695 S VERMONT AVE STE 106,LOS ANGELES,CA,90005-1349,34.05996,-118.29172,203
DA5NKRQ2LF030,FA0068467,727 N VINE ST,LOS ANGELES,CA,90038,34.08428,-118.32679,204
DA5PXOWTGF023,FA0064411,3535 CAHUENGA BLVD W STE 105,LOS ANGELES,CA,90068,34.13327,-118.35707,205
DA5REC0IVF014,FA0243622,3012 WILSHIRE BLVD,LOS ANGELES,CA,90010,34.06172,-118.28691,206
DA5RWNTRSF014,FA0240743,1601 E 103RD ST,LOS ANGELES,CA,90002,33.94375,-118.24555,207
DA5SGQNMRF035,FA0072217,7302 MELROSE AVE,LOS ANGELES,CA,90046,34.08344,-118.349,208
DA5SKVY9WF033,FA0034840,2800 S VERMONT AVE,LOS ANGELES,CA,90007,34.02934,-118.29137,209
DA5SQQL7RF027,FA0015277,108 E FLORENCE AVE,LOS ANGELES,CA,90003,33.97439,-118.27251,210
DA5USAMOLF030,FA0007967,2605 E CESAR E CHAVEZ AVE,LOS ANGELES,CA,90033,34.0457,-118.20489,211
DA5VQEGDOF030,FA0251802,5710 SANTA MONICA BLVD,LOS ANGELES,CA,90038,34.0906,-118.31405,212
DA5VRDZPUF014,FA0051160,2534 S CENTRAL AVE,LOS ANGELES,CA,90011,34.01932,-118.2546,213
DA5XT85R5F030,FA0044452,2215 WESTWOOD BLVD,LOS ANGELES,CA,90025,34.043209,-118.431442,214
DA5Y8JW6YF007,FA0251763,601 S ARDMORE AVE STE 100,LOS ANGELES,CA,90005,34.06332,-118.30197,215
DA60GURCKF029,FA0059508,10800 W PICO BLVD STE #302,LOS ANGELES,CA,90064,34.04054,-118.4272,216
DA60OCC50F004,FA0225926,100 WORLD WAY # 126,LOS ANGELES,CA,90045,33.94572,-118.40095,217
DA61VCC3XF014,FA0180038,1155 N HIGHLAND AVE,LOS ANGELES,CA,90046,34.09211,-118.33899,218
DA62LEQF0F014,FA0053958,3461 W 3RD ST,LOS ANGELES,CA,90005,34.06914,-118.29076,219
DA62N3CPEF035,FA0261508,11980 SAN VICENTE BLVD STE 107,LOS ANGELES,CA,90049,34.05208,-118.47215,220
DA63K5KOTF023,FA0249184,450 S WESTERN AVE # FC5,LOS ANGELES,CA,90020,34.06562,-118.30887,221
DA63RKSTDF033,FA0047636,1900 N HIGHLAND AVE STE #5,LOS ANGELES,CA,90068,34.10562,-118.33728,222
DA67DS5GEF014,FA0245633,8336 LINCOLN BLVD,LOS ANGELES,CA,90045-2414,33.96244,-118.4213,223
DA69DHZXXF033,FA0139038,11507 S WESTERN AVE,LOS ANGELES,CA,90047,33.92944,-118.31022,224
DA6BUTWT4F037,FA0021111,5300 W CENTINELA AVE,LOS ANGELES,CA,90045,33.97696,-118.37276,225
DA6D08ZZWF024,FA0249627,300 S GRAND AVE LP 155,LOS ANGELES,CA,90071-3109,34.05283,-118.25116,226
DA6FIBQ0CF035,FA0064762,5811 E WHITTIER BLVD,LOS ANGELES,CA,90022,34.018251,-118.145961,227
DA6G0CUDJF007,FA0042151,310 E MANCHESTER AVE,LOS ANGELES,CA,90003,33.9599,-118.26906,228
DA6HJNXCNF037,FA0203717,1603 WILSHIRE BLVD,LOS ANGELES,CA,90017-1610,34.05552,-118.27023,229
DA6JOLCQUF030,FA0035448,2080 HILLHURST AVE,LOS ANGELES,CA,90027,34.10975,-118.28727,230
DA6JZF2GLF014,FA0136928,1910 CYPRESS AVE,LOS ANGELES,CA,90065,34.100975,-118.235095,231
DA6KCEJOMF014,FA0053126,11755 WILSHIRE BLVD STE 30,LOS ANGELES,CA,90025,34.04703,-118.46219,232
DA6KQWR5IF006,FA0160372,10608 VENTURA BLVD,LOS ANGELES,CA,91604,34.137297,-118.363651,233
DA6OAGOAKF014,FA0031779,3250 W OLYMPIC BLVD STE 310,LOS ANGELES,CA,90006,34.05244,-118.30766,234
DA6RI6IQSF033,FA0011085,400 WORLD WAY,LOS ANGELES,CA,90045,33.94221,-118.40701,235
DA6RVG90VF006,FA0016187,429 W 8TH ST,LOS ANGELES,CA,90014,34.04512,-118.25655,236
DA6VVGB1ZF014,FA0033644,8162 W SUNSET BLVD,LOS ANGELES,CA,90046,34.09781,-118.36674,237
DA6WQYBXAF033,FA0017456,207 S BROADWAY # B1,LOS ANGELES,CA,90012,34.05234,-118.24723,238
DA6XP8I4DF014,FA0177110,801 S HOPE ST STE C,LOS ANGELES,CA,90017,34.05081,-118.26031,239
DA6ZSV1YHF023,FA0136663,3607 W SUNSET BLVD,LOS ANGELES,CA,90026,34.09019,-118.2769,240
DA70EBOPYF007,FA0040860,1900 N HIGHLAND AVE,LOS ANGELES,CA,90068,34.10562,-118.33728,241
DA70V0LH6F033,FA0240799,1836 N WESTERN AVE,LOS ANGELES,CA,90027,34.10457,-118.30911,242
DA70YYDVBF014,FA0143657,738 E 3RD ST,LOS ANGELES,CA,90013,34.04556,-118.2367,243
DA74YC0A2F023,FA0066010,2103 W JEFFERSON BLVD,LOS ANGELES,CA,90018,34.02568,-118.31782,244
DA774DLW0F025,FA0067764,915 1/2 S VERMONT AVE,LOS ANGELES,CA,90006,34.05532,-118.29182,245
DA78VUHG2F008,FA0249604,2700 COLORADO BLVD,LOS ANGELES,CA,90041,34.142485,-118.224383,246
DA7DVB0KLF007,FA0061528,1260 N VINE ST,LOS ANGELES,CA,90038,34.0937,-118.32654,247
DA7FE1PL0F006,FA0038390,3500 W 6TH ST STE #311,LOS ANGELES,CA,90020,34.06349,-118.29793,248
DA7FYNHTNF006,FA0166170,5136 HOLLYWOOD BLVD,LOS ANGELES,CA,90027,34.10159,-118.30177,249
DA7HEOMHHF023,FA0174388,100 N AVENUE 50,LOS ANGELES,CA,90042,34.10529,-118.20265,250
DA7ILNVMQF014,FA0225800,1522 ABBOT KINNEY,LOS ANGELES,CA,90291,33.98995,-118.46405,251
DA7KE9N8KF029,FA0240075,12775 MILLENNIUM DR # 110,LOS ANGELES,CA,90094,33.97584,-118.4171,252
DA7LSUSVUF035,FA0142720,11444 W OLYMPIC BLVD,LOS ANGELES,CA,90064-1549,34.03654,-118.44363,253
DA7NMTNQ9F006,FA0038205,3241 CITY TERRACE DR,LOS ANGELES,CA,90063,34.048971,-118.191168,254
DA7PSS20HF023,FA0241512,6363 YUCCA ST,LOS ANGELES,CA,90028-5057,34.10412,-118.32875,255
DA7PYMEC8F007,FA0021849,3500 OVERLAND AVE STE #120,LOS ANGELES,CA,90034,34.0248,-118.41154,256
DA7QGLRP2F038,FA0067623,3510 S BROADWAY,LOS ANGELES,CA,90007,34.01732,-118.27462,257
DA7TI0SSNF014,FA0247765,5638 N FIGUEROA ST,LOS ANGELES,CA,90042,34.10944,-118.19275,258
DA7U0GFFOF041,FA0240063,11870 SANTA MONICA BLVD,LOS ANGELES,CA,90025,34.0419,-118.45979,259
DA7U2WW7PF014,FA0248773,416 W 8TH ST,LOS ANGELES,CA,90014-3002,34.04446,-118.25594,260
DA7USVBUAF007,FA0180523,100 WORLD WAY STE 154,LOS ANGELES,CA,90045,33.94572,-118.40095,261
DA7VD6JEAF025,FA0164943,8000 SUNSET BLVD A 110,LOS ANGELES,CA,90046,34.09783,-118.36466,262
DA80FV2UMF007,FA0012526,2000 WESTWOOD BLVD,LOS ANGELES,CA,90025,34.04612,-118.43355,263
DA80LJ58RF007,FA0035644,1911 WESTWOOD BLVD,LOS ANGELES,CA,90025,34.04768,-118.43513,264
DA81H36WDF033,FA0244690,100 WORLD WAY # 120,LOS ANGELES,CA,90045,33.94572,-118.40095,265
DA831V9YEF006,FA0029382,5482 E BEVERLY BLVD,LOS ANGELES,CA,90022,34.0295,-118.1495,266
DA84PAZBIF030,FA0029222,1606 BEVERLY BLVD,LOS ANGELES,CA,90026,34.06351,-118.26351,267
DA86AYVFCF007,FA0073004,8326 S WESTERN AVE,LOS ANGELES,CA,90047,33.96354,-118.30891,268
DA880ZSLIF035,FA0222350,7224 S VERMONT AVE,LOS ANGELES,CA,90044,33.97406,-118.2913,269
DA8AYXP7KF039,FA0049299,7353 MELROSE AVE,LOS ANGELES,CA,90046,34.08364,-118.34988,270
DA8BMZ56LF006,FA0222529,263 S ALEXANDRIA AVE,LOS ANGELES,CA,90004,34.06933,-118.29805,271
DA8CHEATSF033,FA0071651,4050 MARLTON AVE,LOS ANGELES,CA,90008,34.01133,-118.33847,272
DA8DIJMG2F007,FA0049741,1449 WESTWOOD BLVD,LOS ANGELES,CA,90064,34.0548,-118.44141,273
DA8EKFE4RF009,FA0223773,6333 W 3RD ST # 510,LOS ANGELES,CA,90036,34.0722,-118.36037,274
DA8EWXXXEF007,FA0241518,1156 N HIGHLAND AVE,LOS ANGELES,CA,90038-1205,34.0924,-118.33839,275
DA8G0B0GTF040,FA0069864,5212 W ADAMS BLVD,LOS ANGELES,CA,90016,34.03196,-118.35601,276
DA8GB7AMRF007,FA0026911,512 E WASHINGTON BLVD,LOS ANGELES,CA,90015,34.02812,-118.26012,277
DA8GPB26LF007,FA0025130,10227 VENICE BLVD,LOS ANGELES,CA,90034,34.02153,-118.40273,278
DA8HBHFKOF006,FA0024384,4339 1/2 W SUNSET BLVD,LOS ANGELES,CA,90029,34.09499,-118.2827,279
DA8I2MRMZF007,FA0052705,8875 W PICO BLVD,LOS ANGELES,CA,90035,34.05535,-118.38519,280
DA8I4NFRIF014,FA0039498,7290 BEVERLY BLVD,LOS ANGELES,CA,90036,34.07589,-118.34847,281
DA8IBM86DF007,FA0043093,2919 LOS FELIZ BLVD STE #4,LOS ANGELES,CA,90039,34.12684,-118.26358,282
DA8IEHRHXF023,FA0158605,7401 S ALAMEDA ST,LOS ANGELES,CA,90001,33.97293,-118.23451,283
DA8KTJY0YF006,FA0032302,725 S HILL ST,LOS ANGELES,CA,90014,34.04549,-118.25517,284
DA8M3AKSNF006,FA0048575,3450 W 6TH ST STE 101A,LOS ANGELES,CA,90020,34.06323,-118.29702,285
DA8MBZEIWF023,FA0058407,4514 E WHITTIER BLVD,LOS ANGELES,CA,90022,34.02293,-118.170614,286
DA8OYUDBRF006,FA0040531,5400 S CENTRAL AVE,LOS ANGELES,CA,90011,33.99321,-118.2564,287
DA8PZFSWPF044,FA0247757,899 FRANCISCO ST,LOS ANGELES,CA,90017,34.04789,-118.26358,288
DA8Q0EH0WF006,FA0066700,4166 MELROSE AVE,LOS ANGELES,CA,90029,34.08343,-118.29016,289
DA8RVKEGKF006,FA0165896,2325 1/2 S SAN PEDRO ST,LOS ANGELES,CA,90011,34.02345,-118.26032,290
DA8SGNBVRF007,FA0038373,4508 E WHITTIER BLVD,LOS ANGELES,CA,90022,34.023062,-118.170795,291
DA8SR6IWRF009,FA0221476,1000 GAYLEY AVE,LOS ANGELES,CA,90024,34.06187,-118.44759,292
DA8TDC6WFF014,FA0202917,8180 MELROSE AVE,LOS ANGELES,CA,90046,34.08363,-118.36733,293
DA8UM7A0NF006,FA0020295,1818 W 54TH ST,LOS ANGELES,CA,90062,33.99311,-118.30965,294
DA8VXALAUF027,FA0180043,4560 WHITTIER BLVD,LOS ANGELES,CA,90022-2430,34.022669,-118.168895,295
DA8X20RFZF007,FA0240929,4031 W 3RD ST,LOS ANGELES,CA,90020,34.0691,-118.30102,296
DA8XZKGCHF029,FA0014856,984 N BROADWAY,LOS ANGELES,CA,90012,34.06617,-118.236051,297
DA8Y2P0MKF032,FA0018302,4253 S VERMONT AVE,LOS ANGELES,CA,90037,34.00623,-118.29172,298
DA8YRO6ECF014,FA0053815,6515 S SEPULVEDA BLVD,LOS ANGELES,CA,90045,33.9803,-118.39479,299
DA8ZTVYSAF006,FA0040068,4030 S CENTINELA AVE,LOS ANGELES,CA,90066,33.998875,-118.429599,300
DA8ZX7GSPF014,FA0055741,1075 N WESTERN AVE STE 109,LOS ANGELES,CA,90038,34.09027,-118.30959,301
DA92IXLTKF041,FA0009384,3420 WILSHIRE BLVD,LOS ANGELES,CA,90010,34.06166,-118.29827,302
DA94OD0ZEF006,FA0250755,724 S SPRING ST STE 106,LOS ANGELES,CA,90014,34.04384,-118.25268,303
DA97Y0FPWF006,FA0262263,300 WORLD WAY,LOS ANGELES,CA,90045,33.944916,-118.407714,304
DA9AAEMIEF033,FA0251095,9518 S MAIN ST,LOS ANGELES,CA,90003-4223,33.94948,-118.27371,305
DA9E30VRMF014,FA0257953,301 S WESTERN AVE UNIT 202,LOS ANGELES,CA,90020-3817,34.06846,-118.30954,306
DA9ENILOLF009,FA0242601,2029 WESTWOOD BLVD,LOS ANGELES,CA,90025,34.04616,-118.43414,307
DA9FCEYAYF039,FA0064650,3250 W OLYMPIC BLVD #313,LOS ANGELES,CA,90006,34.05244,-118.30766,308
DA9G4WL6HF004,FA0061302,1830 WESTWOOD BLVD,LOS ANGELES,CA,90025,34.04887,-118.43592,309
DA9H0OYG8F033,FA0262370,4034 CRENSHAW BLVD,LOS ANGELES,CA,90008,34.01138,-118.33489,310
DA9HI70SMF025,FA0040257,5305 N FIGUEROA ST,LOS ANGELES,CA,90042,34.10752,-118.19719,311
DA9HPOAR0F036,FA0049287,1032 W MLK BLVD # 106B,LOS ANGELES,CA,90037,34.01,-118.29,312
DA9IU0QHVF014,FA0241192,8744 W 3RD ST,LOS ANGELES,CA,90048,34.07339,-118.38317,313
DA9KEKMXRF014,FA0175717,8859 W PICO BLVD,LOS ANGELES,CA,90035,34.05519,-118.38504,314
DA9KLWH9JF039,FA0039059,4100 S BROADWAY,LOS ANGELES,CA,90037,34.00871,-118.27826,315
DA9LOBXZAF006,FA0262341,7511 S CENTRAL AVE,LOS ANGELES,CA,90001,33.97205,-118.25648,316
DA9M0FTINF014,FA0062127,3100 N SAN FERNANDO RD,LOS ANGELES,CA,90065,34.1149,-118.24619,317
DA9NU1XFHF035,FA0043066,10800 W PICO BLVD STE 310,LOS ANGELES,CA,90064,34.04054,-118.4272,318
DA9OKRT5WF027,FA0041429,5120 RODEO RD,LOS ANGELES,CA,90016,34.021365,-118.356202,319
DA9PKZHT0F025,FA0051040,747 S VERMONT AVE,LOS ANGELES,CA,90005,34.0584,-118.29183,320
DA9RAU94VF038,FA0004830,5101 S AVALON BLVD,LOS ANGELES,CA,90011,33.996418,-118.265394,321
DA9RIUMJYF007,FA0051548,6010 W PICO BLVD,LOS ANGELES,CA,90035,34.05228,-118.37159,322
DA9UAIIG3F023,FA0016213,11921 W PICO BLVD,LOS ANGELES,CA,90064,34.03022,-118.44902,323
DA9UDPMVTF023,FA0045719,12057 WILSHIRE BLVD,LOS ANGELES,CA,90025,34.04495,-118.467,324
DA9UYDATTF035,FA0035550,5825 FRANKLIN AVE,LOS ANGELES,CA,90028,34.10535,-118.31644,325
DA9WUNIL5F006,FA0251670,1107 N ALVARADO ST,LOS ANGELES,CA,90026,34.07791,-118.26347,326
DA9WWQWBSF007,FA0034923,8406 LINCOLN BLVD,LOS ANGELES,CA,90045,33.96139,-118.42042,327
DA9XINIFYF007,FA0034441,1279 W JEFFERSON BLVD,LOS ANGELES,CA,90007,34.02564,-118.29413,328
DA9Y8ICQYF006,FA0156835,3071 W 8TH ST,LOS ANGELES,CA,90005,34.05789,-118.29382,329
DAA041ZKTF007,FA0242945,2740 W OLYMPIC BLVD # 4,LOS ANGELES,CA,90005,34.05244,-118.29312,330
DAA0CUHCIF023,FA0159753,3036 CRENSHAW BLVD,LOS ANGELES,CA,90016,34.026429,-118.334905,331
DAA0FHSFRF014,FA0066514,1453 WESTWOOD BLVD,LOS ANGELES,CA,90024,34.05433,-118.44117,332
DAA1VDQOZF014,FA0137282,1751 S WESTWOOD BLVD,LOS ANGELES,CA,90024,34.05089,-118.43821,333
DAA2LQSFHF040,FA0007843,8207 S WESTERN AVE,LOS ANGELES,CA,90047,33.96395,-118.30933,334
DAA2LTBOAF030,FA0248697,949 S FIGUEROA ST,LOS ANGELES,CA,90015,34.04527,-118.26392,335
DAA3BM8I5F023,FA0166638,4433 ALAMEDA ST # D-54,LOS ANGELES,CA,90058,34.00295,-118.23924,336
DAA6GG0DOF033,FA0174716,929 S BROADWAY ST,LOS ANGELES,CA,90015,34.04174,-118.25687,337
DAA6LD2D2F035,FA0021841,3607 TROUSDALE PKWY,LOS ANGELES,CA,90089,34.02013,-118.28566,338
DAA7DCFUAF029,FA0240842,1999 N SYCAMORE AVE,LOS ANGELES,CA,90068,34.10557,-118.34212,339
DAA7FEAWBF023,FA0249191,11111 WILMINGTON AVE,LOS ANGELES,CA,90059,33.93387,-118.23918,340
DAA8J7EJQF023,FA0058931,148 S LA BREA AVE,LOS ANGELES,CA,90036,34.07218,-118.34383,341
DAAA0ADAJF006,FA0175744,2748 W 8TH ST #104 -107,LOS ANGELES,CA,90005,34.05764,-118.28551,342
DAAADTBGRF006,FA0004800,111 1/2 S VERMONT AVE,LOS ANGELES,CA,90004,34.07156,-118.29206,343
DAAAPJF8GF023,FA0178724,800 N ALAMEDA ST,LOS ANGELES,CA,90012,34.05494,-118.23752,344
DAJYWFDEVF048,FA0071217,11100 W OLYMPIC BLVD,LOS ANGELES,CA,90064,34.03991,-118.43831,345
DAAAWALMVF035,FA0252497,7459 MELROSE AVE,LOS ANGELES,CA,90046,34.0837,-118.35245,346
DAACFJ9OEF014,FA0022433,7950 W SUNSET BLVD STE 104,LOS ANGELES,CA,90046,34.09777,-118.36322,347
DAAD9CGVKF027,FA0261867,3424 WILSHIRE BLVD # MEZZ,LOS ANGELES,CA,90010,34.06166,-118.29836,348
DAADFE1OXF033,FA0012540,3607 TROUSDALE PKWY,LOS ANGELES,CA,90089,34.02013,-118.28566,349
DAADTSPHWF034,FA0034933,404 S FIGUEROA ST STE #102,LOS ANGELES,CA,90071,34.05326,-118.25596,350
DAADWRHFZF009,FA0251647,3077 W 8th ST,LOS ANGELES,CA,90005,34.05783,-118.29331,351
DAAEZ94JZF032,FA0014692,3250 W OLYMPIC BLVD STE #100,LOS ANGELES,CA,90006,34.05244,-118.30773,352
DAAEZ9CE5F030,FA0225959,6636 SELMA AVE,LOS ANGELES,CA,90028-7115,34.09959,-118.33446,353
DAAFJKIBGF033,FA0241086,11706 SAN VICENTE BLVD,LOS ANGELES,CA,90049,34.05326,-118.46583,354
DAAFWEEYMF014,FA0224971,3871 WILSHIRE BLVD,LOS ANGELES,CA,90010,34.06178,-118.31116,355
DAAGLIAWBF023,FA0178709,1209 CYPRESS AVE,LOS ANGELES,CA,90065,34.095612,-118.228002,356
DAAHK3ZKSF025,FA0051830,6255 W SUNSET BLVD STE #105,LOS ANGELES,CA,90028,34.09809,-118.32547,357
DAAHMUDUAF023,FA0008464,759 S VERMONT AVE,LOS ANGELES,CA,90005,34.05856,-118.29171,358
DAAIQLHZLF029,FA0163028,7988 W sunset BLVD,LOS ANGELES,CA,90046-3307,34.0978,-118.36422,359
DAAJJSFJBF006,FA0180608,955 S VERMONT AVE # A,LOS ANGELES,CA,90006-1647,34.05361,-118.29165,360
DAAJMXDLEF030,FA0025192,5877 FRANKLIN AVE,LOS ANGELES,CA,90028,34.10535,-118.31749,361
DAAJV5XM2F014,FA0058030,11660 SAN VICENTE BLVD,LOS ANGELES,CA,90049,34.05368,-118.46401,362
DAQXY8OITF009,FA0018619,2211 S HOOVER ST,LOS ANGELES,CA,90007,34.03564,-118.28418,363
DAAKTNGJ1F007,FA0054839,7158 MELROSE AVE,LOS ANGELES,CA,90046,34.0832,-118.34574,364
DAAKTSCKFF023,FA0067262,7631 S MAIN ST,LOS ANGELES,CA,90003,33.97037,-118.27399,365
DAALCXPFHF036,FA0032803,1287 S UNION AVE,LOS ANGELES,CA,90015,34.04492,-118.27708,366
DAALFF3PWF011,FA0255173,11555 W OLYMPIC BLVD STE B,LOS ANGELES,CA,90064,34.03731,-118.44193,367
DAALZCXQ7F022,FA0245691,1073 BROXTON AVE,LOS ANGELES,CA,90024,34.061183,-118.446184,368
DAAMFIRGPF044,FA0048637,2052 S BUNDY DR,LOS ANGELES,CA,90025,34.03298,-118.45416,369
DAAMTNAROF006,FA0019318,9716 S MAIN ST,LOS ANGELES,CA,90003,33.94815,-118.27378,370
DAAMYFV8JF014,FA0066069,5030 E WHITTIER BLVD,LOS ANGELES,CA,90022,34.021011,-118.160947,371
DAANK7ZMEF007,FA0241885,700 WORLD WAY,LOS ANGELES,CA,90045,33.942995,-118.400297,372
DAAOFPRQKF014,FA0016264,4163 W 5TH ST,LOS ANGELES,CA,90020,34.06541,-118.30967,373
DAAOURNKHF023,FA0261879,1737 SILVERLAKE BLVD,LOS ANGELES,CA,90026,34.090317,-118.268508,374
DAAPCTX5YF014,FA0262124,7368 MELROSE AVE,LOS ANGELES,CA,90046,34.08347,-118.35036,375
DAAPEYEWDF034,FA0257053,1461 1/2 W SUNSET BLVD,LOS ANGELES,CA,90026,34.07539,-118.25374,376
DAAPHYPQJF033,FA0174234,500 WORLD WAY T5,LOS ANGELES,CA,90045,33.94251,-118.405071,377
DAAS4CABZF014,FA0036658,6333 W 3RD ST # #218,LOS ANGELES,CA,90036,34.0722,-118.36037,378
DAATCPIDRF009,FA0043281,5873 HOLLYWOOD BLVD,LOS ANGELES,CA,90028,34.10185,-118.31777,379
DAATE451RF007,FA0241889,600 WILSHIRE BLVD,LOS ANGELES,CA,90007,34.04786,-118.25656,380
DAATQOWPUF033,FA0142714,1901 E 15TH ST,LOS ANGELES,CA,90021-2848,34.02299,-118.23658,381
DAAUPM0SHF014,FA0047985,2700 COLORADO BLVD STE #140,LOS ANGELES,CA,90041,34.142485,-118.224383,382
DAAVIMCWVF014,FA0244582,3125 N SAN FERNANDO RD,LOS ANGELES,CA,90065,34.115297,-118.246031,383
DAAVKOXJ0F025,FA0026699,5770 RODEO RD,LOS ANGELES,CA,90016,34.02146,-118.37159,384
DAAVLL4W4F032,FA0044030,342 N FORD BLVD,LOS ANGELES,CA,90022,34.039922,-118.168983,385
DAAVP23AAF044,FA0019766,460 S ROBERTSON BLVD,LOS ANGELES,CA,90048,34.07042,-118.38361,386
DAAVPFF3GF023,FA0256367,7609 S MAIN ST,LOS ANGELES,CA,90003,33.97048,-118.27407,387
DAAW68CFQF005,FA0180140,3324 W 6TH ST # E1,LOS ANGELES,CA,90020,34.06345,-118.29487,388
DAAWIIX0SF036,FA0250629,3250 W OLYMPIC BLVD STE 325,LOS ANGELES,CA,90006-2371,34.05244,-118.30766,389
DAUNP4CCEF055,FA0073023,312 E 11TH ST,LOS ANGELES,CA,90015,34.03758,-118.25598,390
DAUTH8SS8F027,FA0242490,1511 N CAHUENGA BLVD,LOS ANGELES,CA,90028-7312,34.09841,-118.32966,391
DAAWYCJRNF027,FA0071994,12043 W PICO BLVD,LOS ANGELES,CA,90064,34.02963,-118.45014,392
DAAXA66HZF014,FA0004401,1809 N CAHUENGA BLVD,LOS ANGELES,CA,90028,34.10407,-118.32986,393
DAAXFUNDBF005,FA0241427,2411 W OLYMPIC BLVD # 5,LOS ANGELES,CA,90006,34.05258,-118.28373,394
DAAZDTJH1F006,FA0262227,361 S WESTERN AVE # 101,LOS ANGELES,CA,90020-3804,34.06741,-118.30931,395
DAB0M2PT1F023,FA0261512,1501 FIRESTONE BLVD,LOS ANGELES,CA,90001,33.960331,-118.247379,396
DAB0Z0WG9F032,FA0065487,2712 S CENTRAL AVE,LOS ANGELES,CA,90011,34.01728,-118.25536,397
DAB0ZK0WGF023,FA0159444,3525 W 3RD ST # 1,LOS ANGELES,CA,90020,34.0693,-118.29253,398
DAB5MRBSKF007,FA0036218,811 WILSHIRE BLVD STE 2100,LOS ANGELES,CA,90017,34.049729,-118.2584,399
DAB5MYBZFF034,FA0050171,12105 W PICO BLVD,LOS ANGELES,CA,90064,34.02939,-118.4506,400
DAB8CO0DQF023,FA0013645,1802 N VERMONT AVE,LOS ANGELES,CA,90027,34.10378,-118.29162,401
DABAPGFXOF006,FA0159716,11151 AVALON BLVD 110,LOS ANGELES,CA,90061,33.93392,-118.26524,402
DABD1G89KF006,FA0017735,5399 W CENTINELA AVE,LOS ANGELES,CA,90045,33.977458,-118.373793,403
DABDFVI8RF006,FA0248866,10429 VENICE BLVD,LOS ANGELES,CA,90034,34.02032,-118.4049,404
DABDJWIVIF032,FA0043044,5656 SANTA MONICA BLVD E,LOS ANGELES,CA,90038,34.090585,-118.313151,405
DABDNPV7TF006,FA0171941,429 N WESTERN AVE # 5,LOS ANGELES,CA,90004-2600,34.07894,-118.30933,406
DABDVCALHF006,FA0026089,1636 WESTWOOD BLVD,LOS ANGELES,CA,90024,34.052321,-118.438951,407
DABEXJZ0EF037,FA0054445,1430 S FAIRFAX AVE,LOS ANGELES,CA,90019,34.05038,-118.36661,408
DABFCRDUYF014,FA0010950,1383 WESTWOOD BLVD,LOS ANGELES,CA,90024,34.0555,-118.44211,409
DABFE0DQTF026,FA0178940,5615 HOLLYWOOD BLVD,LOS ANGELES,CA,90027,34.1018,-118.312,410
DABFFFPEEF023,FA0203830,2020 HOOPER AVE,LOS ANGELES,CA,90011,34.01981,-118.24711,411
DABFYNM6MF006,FA0035345,454 W FLORENCE AVE STE 104,LOS ANGELES,CA,90003,33.97457,-118.2819,412
DABGCCNQOF030,FA0261103,12009 WILSHIRE BLVD,LOS ANGELES,CA,90025,34.04495,-118.467,413
DABIDMRL4F023,FA0036693,1507 W JEFFERSON BLVD,LOS ANGELES,CA,90018,34.0256,-118.30045,414
DABIDY00PF030,FA0053750,6301 SANTA MONICA BLVD,LOS ANGELES,CA,90038,34.09105,-118.32788,415
DABIOGLVSF030,FA0240744,3756 W AVENUE 40 UNIT 1H,LOS ANGELES,CA,90065,34.1195,-118.22799,416
DABIOZQQGF007,FA0249588,5907 HOLLYWOOD BLVD,LOS ANGELES,CA,90028-5409,34.10176,-118.31885,417
DABKOYUNUF023,FA0009424,648 S BROADWAY,LOS ANGELES,CA,90014,34.0454,-118.25294,418
DABKRX4RCF035,FA0064757,5130 RODEO RD,LOS ANGELES,CA,90016,34.021366,-118.356673,419
DABLY4Y4HF014,FA0158086,711 1/4 NEW HIGH ST,LOS ANGELES,CA,90012,34.0605,-118.23856,420
DABMCXWZ7F014,FA0024379,928 S WESTERN AVE STE 129,LOS ANGELES,CA,90006,34.05485,-118.30886,421
DABMO5LSNF035,FA0167334,10309 W OLYMPIC BLVD,LOS ANGELES,CA,90064,34.05271,-118.41729,422
DABMQIEZIF030,FA0171709,8318 1/2 3RD ST,LOS ANGELES,CA,90048,34.07273,-118.37149,423
DABN9RAKPF014,FA0250184,318 E 2ND ST STE A,LOS ANGELES,CA,90012,34.04881,-118.24129,424
DABNPYMJYF029,FA0037027,2081 HILLHURST AVE,LOS ANGELES,CA,90027,34.109685,-118.287592,425
DABOVSFTUF006,FA0015325,3545 W OLYMPIC BLVD,LOS ANGELES,CA,90019,34.0527,-118.316,426
DABQKPWZTF023,FA0008331,6404 WILSHIRE BLVD STE #100,LOS ANGELES,CA,90048,34.06366,-118.36834,427
DABQMQM5RF033,FA0241517,3680 WILSHIRE BLVD STE 501,LOS ANGELES,CA,90010,34.06149,-118.30603,428
DABS08KE4F033,FA0069939,5625 HOLLYWOOD BLVD,LOS ANGELES,CA,90028,34.10203,-118.31294,429
DABSCWYB7F006,FA0061151,5222 W SUNSET BLVD # #A,LOS ANGELES,CA,90027,34.09794,-118.30402,430
DABSHWAGGF023,FA0256939,8611 S WESTERN AVE,LOS ANGELES,CA,90047-3325,33.95949,-118.30921,431
DABSQMGQFF023,FA0051379,322 W 7TH ST,LOS ANGELES,CA,90014,34.04557,-118.25423,432
DABTTY61BF023,FA0033208,3301 DIVISION ST,LOS ANGELES,CA,90065,34.10496,-118.23092,433
DABUCR029F014,FA0039512,2925 LOS FELIZ BLVD,LOS ANGELES,CA,90039,34.126008,-118.26427,434
DABUTLFEXF014,FA0058784,3101 N SAN FERNANDO RD,LOS ANGELES,CA,90065,34.115093,-118.24582,435
DABVADT75F007,FA0171800,7275 MELROSE AVE # A,LOS ANGELES,CA,90046,34.0836,-118.34804,436
DAVE4M4F0F048,FA0008217,9922 S MAIN ST,LOS ANGELES,CA,90003,33.94619,-118.27356,437
DABVUOY8EF014,FA0240096,400 S WESTERN AVE # 102,LOS ANGELES,CA,90020,34.067,-118.30888,438
DABVZ2AFMF040,FA0156033,8500 LINCOLN BLVD,LOS ANGELES,CA,90045-3502,33.96052,-118.41968,439
DABWJBH6JF014,FA0030093,257 W IMPERIAL HWY,LOS ANGELES,CA,90061,33.93109,-118.27701,440
DABWLKEN0F006,FA0046020,11214 S CENTRAL AVE,LOS ANGELES,CA,90059,33.93262,-118.25403,441
DABWZ7L05F006,FA0241126,901 S VERMONT AVE,LOS ANGELES,CA,90006-1687,34.05575,-118.29179,442
DABXEVRSSF005,FA0240779,1061 S HILL ST,LOS ANGELES,CA,90015,34.04038,-118.25988,443
DABXJ9PRQF006,FA0222846,1064 GAYLEY AVE,LOS ANGELES,CA,90024,34.06094,-118.44687,444
DABXJNYVQF007,FA0163583,11275 SANTA MONICA BLVD,LOS ANGELES,CA,90024,34.04668,-118.44802,445
DABXRV08HF009,FA0061331,3520 N FIGUEROA ST,LOS ANGELES,CA,90065,34.08875,-118.21478,446
DABXXZCYQF027,FA0071548,422 E 2ND ST,LOS ANGELES,CA,90012,34.04661,-118.23868,447
DABXYNAGNF035,FA0242411,4574 W ADAMS BLVD,LOS ANGELES,CA,90016,34.03239,-118.34027,448
DABYJ4IIMF037,FA0258275,1149 N GOWER ST,LOS ANGELES,CA,90038,34.09219,-118.32242,449
DABYQU510F014,FA0013299,6011 N FIGUEROA ST,LOS ANGELES,CA,90042,34.11142,-118.18949,450
DABYTAC0WF006,FA0242874,3881 WILSHIRE BLVD,LOS ANGELES,CA,90010,34.06178,-118.31116,451
DABZDAP36F023,FA0045808,4356 MELROSE AVE,LOS ANGELES,CA,90029,34.08348,-118.29577,452
DAC04QF20F008,FA0261334,6201 HOLLYWOOD BLVD # 118,LOS ANGELES,CA,90028,34.101797,-118.324613,453
DAC0AUTZPF014,FA0144551,1011 S FIGUEROA ST B101 -B201,LOS ANGELES,CA,90015,34.04476,-118.26452,454
DAC0QWY0FF023,FA0137522,3879 WILSHIRE BLVD,LOS ANGELES,CA,90010,34.06178,-118.31116,455
DAC0SJ4PCF044,FA0064333,2823 S VERMONT AVE # #C,LOS ANGELES,CA,90007,34.02886,-118.2917,456
DAC0W43WHF035,FA0262082,310 S LA BREA AVE STE E,LOS ANGELES,CA,90036-3595,34.06851,-118.34382,457
DAC3U9CB6F035,FA0038622,2501 W SUNSET BLVD #E,LOS ANGELES,CA,90026,34.07974,-118.26907,458
DAC4IAYLBF014,FA0074366,3103 N SAN FERNANDO RD,LOS ANGELES,CA,90065,34.115109,-118.245834,459
DAC4KRPFAF015,FA0242113,11726 SAN VICENTE BLVD # 150,LOS ANGELES,CA,90049-5044,34.053281,-118.466252,460
DAC4P8XWUF025,FA0249093,12105 WATERFRONT DR # A,LOS ANGELES,CA,90094-2536,33.98095,-118.40764,461
DAC4RGYWHF007,FA0160043,10840 WILSHIRE BLVD,LOS ANGELES,CA,90024,34.0594,-118.44117,462
DAC5ODCYPF007,FA0262340,254 W FLORENCE AVE,LOS ANGELES,CA,90003,33.97447,-118.27783,463
DAC84DG0HF006,FA0033930,371 E 2ND ST,LOS ANGELES,CA,90012,34.04813,-118.2397,464
DAC8FRJI4F006,FA0261517,1621 E FLORENCE AVE,LOS ANGELES,CA,90001,33.97473,-118.30545,465
DAC9HDCW5F023,FA0255369,300 W FLORENCE AVE,LOS ANGELES,CA,90003-1809,33.97446,-118.27851,466
DACA2ZX07F007,FA0250628,6333 W 3RD ST,LOS ANGELES,CA,90036,34.0722,-118.36037,467
DACAA56LEF035,FA0137616,802 S SPRING ST,LOS ANGELES,CA,90012,34.04261,-118.25395,468
DACANHOQSF006,FA0010919,3552 S LA BREA AVE,LOS ANGELES,CA,90016,34.02241,-118.35562,469
DACAT9L0JF014,FA0074324,4202 BEVERLY BLVD,LOS ANGELES,CA,90004,34.07613,-118.30063,470
DACBNOB3WF006,FA0171802,4030 W MARTIN LUTHER KING JR. BLVD,LOS ANGELES,CA,90008,34.01566,-118.34348,471
DACDCPWOOF006,FA0006983,2740 E OLYMPIC BLVD,LOS ANGELES,CA,90023,34.02352,-118.21855,472
DACDMYTFFF013,FA0039611,5111 N FIGUEROA ST,LOS ANGELES,CA,90042,34.10599,-118.20055,473
DACDOVU7WF035,FA0259685,12403 WASHINGTON PL,LOS ANGELES,CA,90066,33.99957,-118.43071,474
DACEF4HSCF033,FA0252677,225 W 7TH ST,LOS ANGELES,CA,90014,34.04508,-118.25283,475
DACFKKLXMF053,FA0040047,4520 W SUNSET BLVD,LOS ANGELES,CA,90027,34.09739,-118.28797,476
DACGAWFSDF044,FA0202734,1075 N WESTERN AVE # 107,LOS ANGELES,CA,90029,34.09017,-118.30943,477
DACGIDA2LF014,FA0021969,1012 S SAN PEDRO ST,LOS ANGELES,CA,90015,34.03581,-118.25164,478
DACGX0URIF030,FA0249100,231 E 9TH ST,LOS ANGELES,CA,90015-1702,34.04061,-118.25383,479
DACI6GOX9F006,FA0039014,3183 WILSHIRE BLVD STE 173,LOS ANGELES,CA,90010,34.061969,-118.291105,480
DACIAVDAKF035,FA0242778,9844 NATIONAL BLVD,LOS ANGELES,CA,90034-2713,34.03028,-118.40241,481
DACJTBOKLF005,FA0033680,2514 E CESAR E CHAVEZ AVE,LOS ANGELES,CA,90033,34.04584,-118.20608,482
DACJVVC16F023,FA0043836,942 N BROADWAY STE #102,LOS ANGELES,CA,90012,34.06503,-118.23675,483
DACJZUEXEF033,FA0074402,7851 W SUNSET BLVD,LOS ANGELES,CA,90046,34.09823,-118.36076,484
DACKDZNCXF014,FA0202793,1100 N VERMONT AVE STE 17,LOS ANGELES,CA,90023,34.09089,-118.29164,485
DACL7ES92F030,FA0065301,5716 SANTA MONICA BLVD,LOS ANGELES,CA,90038,34.09067,-118.31407,486
DACLRTYI2F013,FA0036791,6050 E WHITTIER BLVD,LOS ANGELES,CA,90022,34.016674,-118.140476,487
DACN5LEW4F033,FA0038335,8152 W SUNSET BLVD,LOS ANGELES,CA,90046,34.09781,-118.36656,488
DACNTXPMTF007,FA0068222,2411 W OLYMPIC BLVD STE #1,LOS ANGELES,CA,90006,34.05258,-118.28373,489
DACOHF2H4F006,FA0017398,2530 GLENDALE BLVD,LOS ANGELES,CA,90039,34.10322,-118.25902,490
DACOYPJ1XF006,FA0252397,695 S VERMONT AVE # 110,LOS ANGELES,CA,90005-1349,34.05996,-118.29172,491
DACPFCWFTF033,FA0249228,450 S WESTERN AVE # FC3,LOS ANGELES,CA,90020,34.06562,-118.30887,492
DACRHKIMNF009,FA0248372,900 WILSHIRE BLVD,LOS ANGELES,CA,90017,34.050031,-118.259559,493
DACRMJJJBF006,FA0255346,3609 W PICO BLVD,LOS ANGELES,CA,90019-3426,34.04741,-118.3203,494
DACSAVCL7F030,FA0167848,4032 BEVERLY BLVD,LOS ANGELES,CA,90004,34.07617,-118.29694,495
DACT0IJSXF007,FA0015330,3450 W 6TH ST STE #106,LOS ANGELES,CA,90020,34.06323,-118.29702,496
DACT26PORF033,FA0049360,138 S CENTRAL AVE,LOS ANGELES,CA,90012,34.04826,-118.23908,497
DACT50P82F006,FA0251878,701 W CESAR E. CHAVEZ AVE # 108,LOS ANGELES,CA,90012,34.06107,-118.24412,498
DACUPLIOQF033,FA0050488,11656 SAN VICENTE BLVD,LOS ANGELES,CA,90049,34.053631,-118.464691,499
DACUUPZJDF027,FA0066003,11318 S MAIN ST,LOS ANGELES,CA,90061,33.93135,-118.27371,500
DACV4ZU0QF007,FA0064666,5736 S BROADWAY,LOS ANGELES,CA,90037,33.99035,-118.2782,501
DACVEJSVRF006,FA0063932,7286 BEVERLY BLVD,LOS ANGELES,CA,90036,34.07597,-118.3484,502
DACVUIF9KF005,FA0177839,2716 W OLYMPIC BLVD # 104,LOS ANGELES,CA,90006,34.05243,-118.29218,503
DACXMHHM7F023,FA0003265,2035 HILLHURST AVE,LOS ANGELES,CA,90027,34.10865,-118.28759,504
DACXNDUX7F006,FA0017030,700 N ALAMEDA ST,LOS ANGELES,CA,90012,34.05488,-118.23748,505
DACXVC865F035,FA0039177,3607 TROUSDALE PKWY,LOS ANGELES,CA,90089,34.02013,-118.28566,506
DACYBLHFMF006,FA0024489,3801 E 1ST ST,LOS ANGELES,CA,90063,34.0361,-118.18408,507
DACYCR0KTF006,FA0248139,944 W FLORENCE AVE,LOS ANGELES,CA,90044,33.97446,-118.29064,508
DACYCRW2AF007,FA0178551,300 S ATLANTIC BLVD,LOS ANGELES,CA,90022,34.03172,-118.153522,509
DAD02S8PCF014,FA0173659,4730 E OLYMPIC BLVD,LOS ANGELES,CA,90022,34.0179,-118.167146,510
DAD0CRWWPF033,FA0164541,5419 W SUNSET BLVD,LOS ANGELES,CA,90027-5691,34.09827,-118.30768,511
DAD0KNLCOF033,FA0031008,1601 N VERMONT AVE,LOS ANGELES,CA,90027,34.1003,-118.29208,512
DAD0ZTNNXF023,FA0036439,1601 E 103RD ST UNIT 5,LOS ANGELES,CA,90002,33.94375,-118.24555,513
DAD1DJ9IXF014,FA0005509,1144 S WESTERN AVE STE 107,LOS ANGELES,CA,90006,34.04937,-118.30886,514
DAD244L7TF007,FA0032604,3699 WILSHIRE BLVD STE #140,LOS ANGELES,CA,90010,34.0623,-118.3062,515
DAD2EAVF8F007,FA0156560,6022 AVION DR,LOS ANGELES,CA,90045,33.94182,-118.39269,516
DAD4QCJTLF027,FA0020290,5028 S HUNTINGTON DR S,LOS ANGELES,CA,90032,34.08757,-118.17437,517
DAD4WA0ZPF014,FA0248875,532 S LORENA ST,LOS ANGELES,CA,90063,34.0314,-118.19841,518
DAD6Y2NMPF044,FA0245807,6785 SANTA MONICA BLVD,LOS ANGELES,CA,90038,34.0908,-118.33759,519
DADA7EWZ4F036,FA0024262,3602 S LA BREA AVE,LOS ANGELES,CA,90016,34.02129,-118.3554,520
DADAAEYUWF036,FA0165123,1931 E FLORENCE AVE,LOS ANGELES,CA,90001,33.974919,-118.238036,521
DADAGXM3CF030,FA0058423,1734 E FLORENCE AVE,LOS ANGELES,CA,90001,33.9744,-118.30806,522
DADANOL1AF005,FA0242773,1301 WESTWOOD BLVD,LOS ANGELES,CA,90024-4901,34.0568,-118.44293,523
DADC9D9RUF033,FA0224670,11925 SANTA MONICA BLVD,LOS ANGELES,CA,90025,34.041754,-118.461042,524
DADCPCQ8OF006,FA0034904,2180 WESTWOOD BLVD # B,LOS ANGELES,CA,90025,34.04421,-118.431802,525
DADDGRUYFF026,FA0251765,3959 WILSHIRE BLVD STE B9,LOS ANGELES,CA,90010,34.06203,-118.31329,526
DADDZBC17F014,FA0071239,11819 WILSHIRE BLVD,LOS ANGELES,CA,90025,34.0482,-118.46241,527
DADDZGHBTF008,FA0241831,5185 W SUNSET BLVD,LOS ANGELES,CA,90027,34.09828,-118.30305,528
DADE4WIM6F025,FA0163532,4541 EAGLE ROCK BLVD,LOS ANGELES,CA,90041,34.1271,-118.218585,529
DADEK4FZZF007,FA0010729,148 S BARRINGTON AVE,LOS ANGELES,CA,90049,34.06475,-118.46937,530
DADG5IMZ0F035,FA0069833,4166 S BROADWAY,LOS ANGELES,CA,90037,34.00759,-118.27813,531
DADHPKXPWF033,FA0035436,107 E 6TH ST,LOS ANGELES,CA,90013,34.04522,-118.24969,532
DADHPRS2EF007,FA0031172,3950 W MLK BLVD,LOS ANGELES,CA,90008,34.01499,-118.34203,533
DADHYHDOEF027,FA0224125,698 S VERMONT AVE # 101,LOS ANGELES,CA,90005,34.05979,-118.29154,534
DADI1XISWF008,FA0012539,125 N LARCHMONT BLVD,LOS ANGELES,CA,90004,34.07382,-118.32383,535
DADIO8FDBF006,FA0252680,750 N HILL ST STE F,LOS ANGELES,CA,90012-2383,34.06203,-118.2397,536
DADIZTWCAF029,FA0037161,10948 WEYBURN AVE,LOS ANGELES,CA,90024,34.06239,-118.44669,537
DADJQNOVZF033,FA0029872,5633 HOLLYWOOD BLVD,LOS ANGELES,CA,90028,34.10203,-118.31294,538
DADJS7YZ5F009,FA0008218,11301 W OLYMPIC BLVD STE 204,LOS ANGELES,CA,90064,34.03819,-118.44181,539
DADKVQ0G3F033,FA0165365,1631 W SUNSET BLVD,LOS ANGELES,CA,90026,34.07733,-118.25815,540
DADL6VHA7F007,FA0166376,8722 W 3RD ST,LOS ANGELES,CA,90046,34.07349,-118.38236,541
DADLRKA0PF006,FA0066675,405 N ALVARADO ST,LOS ANGELES,CA,90026,34.07065,-118.26798,542
DADM06BB6F007,FA0005770,1753 E FLORENCE AVE,LOS ANGELES,CA,90001,33.974926,-118.241516,543
DADMSXU8SF004,FA0073375,923 S VERMONT AVE,LOS ANGELES,CA,90006,34.05504,-118.29182,544
DADNBYTBPF030,FA0032559,8809 W PICO BLVD,LOS ANGELES,CA,90035,34.055,-118.38402,545
DADOE0FA1F029,FA0050360,1049 W MLK BLVD,LOS ANGELES,CA,90037,34.01095,-118.29424,546
DADQEUYN0F014,FA0034953,5907 FRANKLIN AVE,LOS ANGELES,CA,90028,34.10534,-118.31839,547
DADQH49ZOF005,FA0164928,1767 WESTWOOD BLVD,LOS ANGELES,CA,90024,34.05063,-118.43798,548
DADQMMOI8F007,FA0034716,3105 N SAN FERNANDO RD,LOS ANGELES,CA,90065,34.115126,-118.24585,549
DADTPFLNSF023,FA0033432,6009 S HOOPER AVE,LOS ANGELES,CA,90001,33.984922,-118.252303,550
DADUTKEQXF033,FA0240903,7829 S HOOVER ST,LOS ANGELES,CA,90044,33.96797,-118.28727,551
DADVJV30IF014,FA0138459,130 S CENTRAL AVE,LOS ANGELES,CA,90012,34.04837,-118.23906,552
DADVQCX5TF009,FA0256119,7950 SUNSET BLVD # 105,LOS ANGELES,CA,90046,34.09777,-118.36322,553
DADXWRKWHF031,FA0141137,5807 W 98TH ST,LOS ANGELES,CA,90045-5605,33.94746,-118.38365,554
DAE01LQJGF023,FA0071401,1289 W JEFFERSON BLVD,LOS ANGELES,CA,90007,34.02563,-118.29451,555
DAE0AHTR0F023,FA0170609,7201 S FIGUEROA AVE,LOS ANGELES,CA,90003,33.97447,-118.28276,556
DAE0HDH25F006,FA0166474,5413 W ADAMS BLVD,LOS ANGELES,CA,90016,34.03263,-118.36069,557
DAE0QTFWHF023,FA0224953,9919 S AVALON BLVD,LOS ANGELES,CA,90003,33.9459,-118.26545,558
DAE0T82ZRF007,FA0070998,800 W OLYMPIC BLVD STE 102,LOS ANGELES,CA,90015,34.04484,-118.26453,559
DAE1AZU4IF034,FA0051125,4150 S BROADWAY,LOS ANGELES,CA,90037,34.00805,-118.27813,560
DAE1EJU5EF014,FA0073401,210 S MAIN ST,LOS ANGELES,CA,90012,34.05035,-118.24499,561
DAE1RIPLVF033,FA0241295,8631 W 3RD ST # 311E,LOS ANGELES,CA,90048,34.07366,-118.3805,562
DAE21E5JIF023,FA0166465,1220 E 1ST ST,LOS ANGELES,CA,90033,34.0474,-118.2272,563
DAE2UUZWEF023,FA0240699,11870 SANTA MONICA BLVD # 107,LOS ANGELES,CA,90025,34.0419,-118.45979,564
DAE3Z04RFF027,FA0165288,735 S FIGUEROA ST #130,LOS ANGELES,CA,90017,34.04878,-118.26079,565
DAE5NL3R1F004,FA0006801,1003 S HILL ST,LOS ANGELES,CA,90015,34.04158,-118.25876,566
DAE7BQ3B5F023,FA0035292,2925 DIVISION ST,LOS ANGELES,CA,90065,34.10325,-118.23559,567
DAEAL2G5GF030,FA0071443,2716 N SAN FERNANDO RD,LOS ANGELES,CA,90065,34.1097,-118.24272,568
DAEAXC69TF007,FA0003321,7111 MELROSE AVE # C,LOS ANGELES,CA,90046,34.0837,-118.34483,569
DAEBZ00I3F006,FA0248565,700 S SAN PEDRO ST # 101,LOS ANGELES,CA,90014,34.04043,-118.24681,570
DAEC0VL7WF027,FA0162860,2109 S SAN PEDRO ST,LOS ANGELES,CA,90011,34.02564,-118.25891,571
DAEC6FCK6F014,FA0049427,9842 NATIONAL BLVD,LOS ANGELES,CA,90034,34.03028,-118.40241,572
DAECLOSETF006,FA0225834,149 N WESTERN AVE,LOS ANGELES,CA,90004,34.07166,-118.3093,573
DAEEH77YAF033,FA0054994,6280 HOLLYWOOD BLVD,LOS ANGELES,CA,90028,34.10146,-118.32615,574
DAEFAUSL0F035,FA0261337,4962 WHITTIER BLVD,LOS ANGELES,CA,90022-3130,34.02124,-118.162244,575
DAEFF0DQ7F029,FA0068600,1870 WESTWOOD BLVD,LOS ANGELES,CA,90025,34.04887,-118.43592,576
DAEGFPMIFF023,FA0030822,201 N LOS ANGELES ST STE 24,LOS ANGELES,CA,90012,34.0529,-118.24156,577
DAEHLPW4LF014,FA0224697,928 S WESTERN AVE STE 131,LOS ANGELES,CA,90006,34.05485,-118.30886,578
DAEISTKVPF014,FA0062810,960 N BROADWAY,LOS ANGELES,CA,90012,34.06565,-118.23641,579
DAEIXL7AYF014,FA0136983,621 S WESTERN AVE STE 102,LOS ANGELES,CA,90005,34.06273,-118.30946,580
DAEJ24MWYF006,FA0068355,125 N WESTERN AVE # #101,LOS ANGELES,CA,90004,34.07228,-118.3093,581
DAEJMEXV8F016,FA0063840,1757 N VERMONT AVE,LOS ANGELES,CA,90027,34.10298,-118.29205,582
DAEJOQDP0F007,FA0240669,519 S FAIRFAX AVE,LOS ANGELES,CA,90036,34.08062,-118.36179,583
DAEKJUBQVF006,FA0071465,1418 WESTWOOD BLVD,LOS ANGELES,CA,90024,34.05499,-118.44126,584
DAEKZZQ0TF014,FA0137679,1816 FIRESTONE BLVD E,LOS ANGELES,CA,90001,33.96304,-118.24082,585
DAELFUTIJF014,FA0055637,11820 W PICO BLVD,LOS ANGELES,CA,90064,34.03037,-118.4478,586
DAEM7I78DF034,FA0261787,1680 N VINE ST,LOS ANGELES,CA,90028-8804,34.10128,-118.32631,587
DAEN7YMU4F027,FA0258956,2256 COLORADO BLVD # 108,LOS ANGELES,CA,90041,34.13914,-118.21549,588
DAENST80OF023,FA0004159,601 S FAIRFAX AVE,LOS ANGELES,CA,90048,34.06427,-118.36147,589
DAENX3VQDF006,FA0072411,11701 WILSHIRE BLVD STE #13,LOS ANGELES,CA,90025,34.0491,-118.46131,590
DAEO7DJP7F006,FA0050965,4433 S ALAMEDA ST # A57,LOS ANGELES,CA,90058,34.00295,-118.23924,591
DAEOCT2XFF006,FA0010024,1938 E FLORENCE AVE,LOS ANGELES,CA,90001,33.974518,-118.237685,592
DAEORP0HKF009,FA0250160,8495 W 3RD ST,LOS ANGELES,CA,90048,34.07345,-118.37632,593
DAEQ06N6WF007,FA0261922,4331 DEGNAN BLVD,LOS ANGELES,CA,90008-4908,34.00509,-118.33167,594
DAEQ1HDBJF014,FA0242593,1100 S HOPE ST,LOS ANGELES,CA,90015,34.04195,-118.2631,595
DAEQ7O000F014,FA0055736,2850 CRENSHAW BLVD # #C,LOS ANGELES,CA,90016,34.029655,-118.334902,596
DAEQEHTMMF023,FA0251553,130 E 6TH ST,LOS ANGELES,CA,90014,34.04502,-118.24972,597
DAER0RP0BF014,FA0242098,6660 W SUNSET BLVD UNIT M,LOS ANGELES,CA,90028,34.09781,-118.33562,598
DAETBANYYF026,FA0010539,1051 GAYLEY AVE,LOS ANGELES,CA,90024,34.06098,-118.44735,599
DAETCUGW0F006,FA0175538,1908 N HILLHURST AVE,LOS ANGELES,CA,90027,34.10573,-118.28722,600
DAEU6RRGTF033,FA0163250,3000 W 6TH ST STE 100,LOS ANGELES,CA,90020,34.06361,-118.28704,601
DAEUEPCPUF007,FA0248956,2102 E CESAR CHAVEZ AVE,LOS ANGELES,CA,90033,34.0482,-118.21137,602
DAEUMXXBMF030,FA0048255,5170 W SUNSET BLVD,LOS ANGELES,CA,90027,34.09795,-118.30291,603
DAEUU8H4UF006,FA0244314,1356 ALLISON AVE,LOS ANGELES,CA,90026,34.07275,-118.25157,604
DAEV3CPOHF008,FA0248001,200 WORLD WAY,LOS ANGELES,CA,90045,33.94558,-118.4039,605
DAEVQWZVKF007,FA0044158,2930 COLORADO BLVD,LOS ANGELES,CA,90041,34.142597,-118.22877,606
DAEVUFWDQF023,FA0039431,5409 W SUNSET BLVD,LOS ANGELES,CA,90027,34.09827,-118.30749,607
DAEVVWII0F034,FA0066645,1160 E ROSECRANS AVE,LOS ANGELES,CA,90059,33.90256,-118.25699,608
DAEWB7CPZF023,FA0023958,11270 W OLYMPIC BLVD,LOS ANGELES,CA,90064,34.03825,-118.44066,609
DAEWBYFYVF014,FA0173808,726 S HILL ST,LOS ANGELES,CA,90014,34.04549,-118.25471,610
DAEWWPGRCF005,FA0180023,200 WORLD WAY # 240,LOS ANGELES,CA,90045,33.94558,-118.4039,611
DAEX3O063F035,FA0071478,3480 S LA BREA AVE,LOS ANGELES,CA,90016,34.0227,-118.35544,612
DAEXKR4QJF014,FA0027989,1001 S VERMONT AVE STE 102,LOS ANGELES,CA,90006,34.05236,-118.29185,613
DAEXKYAUKF006,FA0062342,11740 SAN VICENTE BLVD STE 101,LOS ANGELES,CA,90049,34.053083,-118.466904,614
DAEXXYCTDF029,FA0174196,7070 W SUNSET BLVD,LOS ANGELES,CA,90028,34.0978,-118.34374,615
DAEYKT10PF006,FA0171622,8906 S WESTERN AVE,LOS ANGELES,CA,90047,33.9561,-118.30891,616
DAEZMDNOAF013,FA0008499,2057 E CESAR E CHAVEZ AVE,LOS ANGELES,CA,90033,34.04884,-118.21212,617
DAF0ZYHKKF006,FA0002274,6701 SANTA MONICA BLVD,LOS ANGELES,CA,90038,34.0908,-118.33643,618
DAF1VJDNPF026,FA0037345,7123 W MELROSE AVE,LOS ANGELES,CA,90046,34.083582,-118.34492,619
DAF3DWT5TF008,FA0067197,3607 TROUSDALE PKWY,LOS ANGELES,CA,90089,34.02013,-118.28566,620
DAF4CVBKAF006,FA0262017,3623 W PICO BLVD,LOS ANGELES,CA,90019,34.04733,-118.32035,621
DAF4GLLGUF034,FA0261756,12226 VENICE BLVD,LOS ANGELES,CA,90066,34.00428,-118.431913,622
DAF53LI2BF023,FA0175001,3377 WILSHIRE BLVD # 112,LOS ANGELES,CA,90010,34.06193,-118.29742,623
DAF54YXSSF007,FA0036082,5818 RODEO RD,LOS ANGELES,CA,90016,34.02147,-118.37317,624
DAF6WOCGRF023,FA0243307,1253 N VINE ST # 12,LOS ANGELES,CA,90038,34.09377,-118.32672,625
DAF7FO2BGF014,FA0019704,11079 W PICO BLVD,LOS ANGELES,CA,90064,34.03728,-118.43492,626
DAF7ITBE3F027,FA0020593,7408 W SUNSET BLVD,LOS ANGELES,CA,90046,34.0978,-118.3521,627
DAF80VAAPF006,FA0019310,426 S ALVARADO ST,LOS ANGELES,CA,90057,34.06056,-118.27401,628
DAF8SLKC2F006,FA0046107,635 S HOBART BLVD STE #C,LOS ANGELES,CA,90005,34.06236,-118.30543,629
DAF8TMXA0F023,FA0053897,10117 S AVALON BLVD,LOS ANGELES,CA,90003,33.94415,-118.26532,630
DAF90ZJPSF007,FA0159460,500 WORLD WAY TSB,LOS ANGELES,CA,90045,33.94251,-118.405071,631
DAFAC020OF007,FA0046657,6225 S BROADWAY,LOS ANGELES,CA,90003,33.98258,-118.2785,632
DAFAMNEC2F033,FA0029957,465 S FAIRFAX AVE,LOS ANGELES,CA,90036,34.06778,-118.3617,633
DAFAQHMV4F007,FA0021687,5855 W CENTURY BLVD,LOS ANGELES,CA,90045,33.94541,-118.38325,634
DAFBH06NXF014,FA0068820,913 N BROADWAY,LOS ANGELES,CA,90012,34.064433,-118.237451,635
DAFBVX03DF007,FA0023656,5026 S CRENSHAW BLVD,LOS ANGELES,CA,90043,33.996862,-118.330444,636
DAFD0NS89F014,FA0067509,4135 S CENTINELA AVE,LOS ANGELES,CA,90066,33.9962,-118.42778,637
DAFEF8NSPF007,FA0258837,1091 BROXTON AVE,LOS ANGELES,CA,90024,34.06093,-118.44598,638
DAFENWEJWF006,FA0029419,11901 SANTA MONICA BLVD STE 102,LOS ANGELES,CA,90025,34.04198,-118.46055,639
DAFESES92F007,FA0041980,11628 SANTA MONICA BLVD STE 9,LOS ANGELES,CA,90025,34.04423,-118.45451,640
DAFGPQBC6F007,FA0163773,5112 HOLLYWOOD BLVD STE 101,LOS ANGELES,CA,90027,34.10139,-118.30125,641
DAFIG9SCFF006,FA0224580,4555 E 3RD ST # 1A,LOS ANGELES,CA,90022-1685,34.03339,-118.16763,642
DAFIRXXNYF033,FA0165287,735 S FIGUEROA ST #129,LOS ANGELES,CA,90017,34.04878,-118.26079,643
DAFJCJCTZF030,FA0248961,8369 BEVERLY BLV,LOS ANGELES,CA,90048,34.07614,-118.37255,644
DAFJOUFTJF035,FA0013160,3607 TROUSDALE PKWY,LOS ANGELES,CA,90089,34.02013,-118.28566,645
DAFKLNCEZF039,FA0022239,2843 S CRENSHAW BLVD,LOS ANGELES,CA,90016,34.029967,-118.33534,646
DAFL1HUZZF040,FA0203205,710 S LA BREA AVE,LOS ANGELES,CA,90036,34.06164,-118.34397,647
DAFLSGOTMF033,FA0166041,1734 E 22ND ST,LOS ANGELES,CA,90058,34.01654,-118.24142,648
DAFLXVCW9F006,FA0021282,3401 S MAIN ST,LOS ANGELES,CA,90037,34.01805,-118.27369,649
DAFMXSIVJF014,FA0046822,400 WORLD WAY # 4A,LOS ANGELES,CA,90045,33.94221,-118.40701,650
DAFO3MBVTF033,FA0012497,408 E WASHINGTON BLVD,LOS ANGELES,CA,90015,34.02926,-118.26134,651
DAFPKUDH0F004,FA0057304,8905 VENICE BLVD STE 112,LOS ANGELES,CA,90034,34.02929,-118.38914,652
DAFQKU04EF032,FA0250786,8044 W 3RD ST,LOS ANGELES,CA,90048,34.07188,-118.36476,653
DAFRENJQNF014,FA0223921,2339 HOOPER AVE,LOS ANGELES,CA,90011-1713,34.01759,-118.24943,654
DAFSGUCRBF023,FA0037224,1001 S VERMONT AVE STE 106,LOS ANGELES,CA,90006,34.05236,-118.29185,655
DAFSVBD0JF007,FA0003833,473 N WESTERN AVE,LOS ANGELES,CA,90004,34.07983,-118.30937,656
DAFT5RR7XF014,FA0179267,525 W 7TH ST,LOS ANGELES,CA,90014,34.04683,-118.25571,657
DAFTCWEC2F033,FA0249208,3033 W 6TH ST STE 107,LOS ANGELES,CA,90020-1543,34.06385,-118.28817,658
DAFTHBWXRF005,FA0020426,3059 W 8TH ST,LOS ANGELES,CA,90005,34.05789,-118.29358,659
DAFUZNPBSF023,FA0046714,5061 ALHAMBRA AVE,LOS ANGELES,CA,90032,34.07081,-118.175964,660
DAFVEHOUZF039,FA0151380,900 W OLYMPIC BLVD,LOS ANGELES,CA,90015-1338,34.04526,-118.26611,661
DAFW9L0CQF006,FA0017622,7000 HOLLYWOOD BLVD,LOS ANGELES,CA,90028,34.10137,-118.34182,662
DAFXM46NOF030,FA0062455,2155 S ATLANTIC BLVD,LOS ANGELES,CA,90040,34.007125,-118.162182,663
DAFZ5YE2HF007,FA0051821,7383 MELROSE AVE,LOS ANGELES,CA,90046,34.08383,-118.35066,664
DAFZKVKSSF030,FA0062494,3353 BARHAM BLVD,LOS ANGELES,CA,90068,34.1321,-118.34458,665
DAFZRHXOCF014,FA0010423,755 S VERMONT AVE,LOS ANGELES,CA,90005,34.05822,-118.29183,666
DAFZSC0GYF008,FA0240482,1001 N VERMONT AVE,LOS ANGELES,CA,90029,34.08966,-118.29207,667
DAFZTB2XUF030,FA0021718,127 N LARCHMONT BLVD,LOS ANGELES,CA,90004,34.07385,-118.32383,668
DAG0FNCPQF036,FA0005449,6051 HOLLYWOOD BLVD STE #104,LOS ANGELES,CA,90028,34.10203,-118.32191,669
DAG0I4P8BF006,FA0060276,301 E 7TH ST,LOS ANGELES,CA,90014,34.04248,-118.24915,670
DAG0LTVMBF006,FA0032637,7013 MELROSE AVE,LOS ANGELES,CA,90038,34.08357,-118.34325,671
DAG2XP0PWF006,FA0137632,3655 S GRAND AVE #C2,LOS ANGELES,CA,90007-4346,34.01726,-118.27819,672
DAG30K1NLF033,FA0172198,1901 S ALAMEDA ST STE 102-B,LOS ANGELES,CA,90058,34.01973,-118.23974,673
DAG3IJUSUF014,FA0005453,139 S VERMONT AVE,LOS ANGELES,CA,90004,34.07161,-118.29188,674
DAG3UL5MNF014,FA0003187,7000 HOLLYWOOD BLVD,LOS ANGELES,CA,90028,34.10137,-118.34182,675
DAG5EHCRJF033,FA0043003,1045 BLAINE ST,LOS ANGELES,CA,90015,34.046189,-118.270991,676
DAG61ZEGAF007,FA0012523,2005 WESTWOOD BLVD,LOS ANGELES,CA,90025,34.04616,-118.43414,677
DAG6L41QFF014,FA0262125,2844 WABASH AVE,LOS ANGELES,CA,90033-2605,34.049734,-118.196722,678
DAG6XS2YVF006,FA0065174,2520 1/4 S CENTRAL AVE,LOS ANGELES,CA,90011,34.01932,-118.2546,679
DAG7BLHYNF040,FA0249923,4626 W ADAMS BLVD,LOS ANGELES,CA,90018,34.03223,-118.34142,680
DAG7NYZJYF006,FA0163389,13000 S AVALON BLVD,LOS ANGELES,CA,90061-2736,33.914504,-118.26489,681
DAG8DO06TF007,FA0175004,350 S GRAND AVE STE D-3,LOS ANGELES,CA,90071,34.05173,-118.2522,682
DAGALHRVBF036,FA0242466,135 N LARCHMONT BLVD,LOS ANGELES,CA,90004-3704,34.07404,-118.32383,683
DAGB8CSAVF006,FA0137343,570 N FIGUEROA ST,LOS ANGELES,CA,90012,34.06226,-118.24625,684
DAGD03TVSF014,FA0039321,128 E 6TH ST,LOS ANGELES,CA,90014,34.04502,-118.24972,685
DAGBHHWUHF006,FA0058066,2700 E 1ST ST,LOS ANGELES,CA,90033,34.04178,-118.20591,686
DAGBNPFBTF033,FA0032403,500 WORLD WAY #5K,LOS ANGELES,CA,90045,33.94251,-118.405071,687
DAGDRLG20F027,FA0015865,12003 AVALON BLVD STE 106,LOS ANGELES,CA,90061,33.923196,-118.265412,688
DAGDTE3JGF007,FA0074185,712 S HILL ST,LOS ANGELES,CA,90014,34.0454,-118.25464,689
DAGDWTWDOF007,FA0012730,1301 E GAGE AVE,LOS ANGELES,CA,90001,33.98261,-118.24989,690
DAGEUVHXIF026,FA0177643,800 ALAMEDA ST # 4,LOS ANGELES,CA,90012-3740,34.05494,-118.23752,691
DAGG1OTS7F043,FA0044013,9500 S MAIN ST,LOS ANGELES,CA,90003,33.95001,-118.27378,692
DAGGFAZGFF014,FA0175608,3540 E 1ST ST,LOS ANGELES,CA,90063-4142,34.035804,-118.190895,693
DAGGOD8OXF006,FA0223839,12003 AVALON BLVD STE 103,LOS ANGELES,CA,90061,33.923196,-118.265412,694
DAGHA6ZXAF023,FA0004739,6412 S CENTRAL AVE,LOS ANGELES,CA,90001,33.98127,-118.256202,695
DAGI0K501F007,FA0067505,1260 S SOTO ST STE,LOS ANGELES,CA,90023,34.02636,-118.21944,696
DAGICHYC5F033,FA0032335,1118 CYPRESS AVE,LOS ANGELES,CA,90065,34.09401,-118.22641,697
DAGIVUGVUF030,FA0009948,939 BROXTON AVE,LOS ANGELES,CA,90024,34.06289,-118.44725,698
DAGJ4EVUWF023,FA0065373,4105 CHEVY CHASE DR,LOS ANGELES,CA,90039,34.13352,-118.26872,699
DAGJ5H7OLF033,FA0179170,2919 LOS FELIZ BLVD STE 2,LOS ANGELES,CA,90039,34.12684,-118.26358,700
DAGJA2RWUF006,FA0028567,4715 W ADAMS BLVD,LOS ANGELES,CA,90016,34.0328,-118.34361,701
DAGK705EKF006,FA0174236,514 W 7TH ST,LOS ANGELES,CA,90014,34.04675,-118.25614,702
DAGKMZDOWF008,FA0041542,11500 W PICO BLVD,LOS ANGELES,CA,90064,34.03326,-118.44223,703
DAGKTSDFJF006,FA0012000,11933 SANTA MONICA BLVD,LOS ANGELES,CA,90025,34.04172,-118.46087,704
DAGKZEPKIF023,FA0156500,1201 S FIGUEROA ST,LOS ANGELES,CA,90015,34.04202,-118.26715,705
DAGM1DJI0F014,FA0027210,2100 E CESAR E CHAVEZ AVE,LOS ANGELES,CA,90033,34.04816,-118.21142,706
DAGM7G03OF016,FA0037748,4863 HUNTINGTON DR N,LOS ANGELES,CA,90032,34.086488,-118.178353,707
DAGM9TIUOF014,FA0046784,240 N VIRGIL AVE STE #5,LOS ANGELES,CA,90004,34.0761,-118.28661,708
DAGNC4BZOF007,FA0137894,500 WORLD WAY,LOS ANGELES,CA,90045,33.94251,-118.405071,709
DAGNQGEFSF033,FA0024167,1210 S SOTO ST,LOS ANGELES,CA,90023,34.02759,-118.21931,710
DAGP1KE3AF007,FA0239255,8985 W VENICE BLVD,LOS ANGELES,CA,90034,34.027346,-118.392411,711
DAGPBPHMVF006,FA0156813,3590 E 1ST ST,LOS ANGELES,CA,90063,34.03592,-118.18973,712
DAGQEC0YZF033,FA0167739,229 W 7TH ST,LOS ANGELES,CA,90014,34.04499,-118.25286,713
DAGRJ2IURF014,FA0046019,1939 E NADEAU ST,LOS ANGELES,CA,90001,33.96748,-118.2378,714
DAGRTQLDAF009,FA0073186,8164 MELROSE AVE,LOS ANGELES,CA,90046,34.08353,-118.36747,715
DAGTCL0H0F033,FA0046490,1637 N VERMONT AVE,LOS ANGELES,CA,90027,34.10105,-118.29208,716
DAGTXYLCUF023,FA0252111,1250 S CATALINA ST,LOS ANGELES,CA,90006-3306,34.04768,-118.29461,717
DAGU06HWMF007,FA0159448,500 WORLD WAY TSB,LOS ANGELES,CA,90045,33.94251,-118.405071,718
DAGUE1LPNF033,FA0036871,3416 GLENDALE BLVD,LOS ANGELES,CA,90039,34.12055,-118.25772,719
DAGUJBHGAF006,FA0251730,755 LA CIENEGA BLVD,LOS ANGELES,CA,90069,34.08458,-118.37682,720
DAGVV7ARNF036,FA0166254,114 E 2ND ST,LOS ANGELES,CA,90012,34.05056,-118.24413,721
DAGWJOAJCF014,FA0160696,1521 GRIFFITH PARK BLVD,LOS ANGELES,CA,90026,34.090598,-118.277145,722
DAGYEPBHSF014,FA0250367,1441 WESTWOOD BLVD # A,LOS ANGELES,CA,90024,34.05453,-118.44134,723
DAGYQJ5TGF007,FA0051072,7825 BEVERLY BLVD STE #5,LOS ANGELES,CA,90036,34.07627,-118.36072,724
DAGZKFDFQF006,FA0025397,11201 S WILMINGTON AVE,LOS ANGELES,CA,90059,33.933388,-118.239342,725
DAH0GQCYGF006,FA0142968,3022 S COCHRAN AVE,LOS ANGELES,CA,90016-3706,34.02601,-118.36085,726
DAH0ZF2V6F035,FA0066816,3554 WHITTIER BLVD,LOS ANGELES,CA,90023,34.025869,-118.196982,727
DAH2FNJMJF006,FA0224693,7257 MELROSE AVE,LOS ANGELES,CA,90046,34.0836,-118.34774,728
DAH2Z7DESF006,FA0222872,7151 W SUNSET BLVD,LOS ANGELES,CA,90046,34.09814,-118.34576,729
DAH3UDLS0F006,FA0203029,3033 W 6TH ST STE 102,LOS ANGELES,CA,90020,34.06385,-118.28817,730
DAH4GYWHOF006,FA0033294,334 S MAIN ST APT #1101,LOS ANGELES,CA,90015,34.04899,-118.24625,731
DAH5CWL1KF035,FA0138302,5311 OLYMPIC BLVD,LOS ANGELES,CA,90022,34.016204,-118.157056,732
DAH70X5HIF014,FA0177656,3535 W CAHUENGA BLVD STE 107,LOS ANGELES,CA,90068,34.1333,-118.35735,733
DAH80O4MVF023,FA0262347,7825 S BROADWAY,LOS ANGELES,CA,90003,33.96812,-118.27849,734
DAHA8DNZHF006,FA0028690,303 E 7TH ST,LOS ANGELES,CA,90014,34.04248,-118.24915,735
DAHAVL4YPF027,FA0040691,1224 BEVERWIL DR,LOS ANGELES,CA,90035,34.055402,-118.398913,736
DAHAW5JQDF033,FA0242065,611 EXPOSITION BLVD,LOS ANGELES,CA,90089,34.06031,-118.20605,737
DAHBRNGD3F023,FA0049743,2716 N SAN FERNANDO RD,LOS ANGELES,CA,90065,34.1097,-118.24272,738
DAHBW9IT0F039,FA0060205,111 S GRAND AVE,LOS ANGELES,CA,90071,34.05525,-118.24928,739
DAHDQQBNFF006,FA0020884,5812 OVERHILL DR,LOS ANGELES,CA,90043,33.98825,-118.35385,740
DAHEMFTCDF034,FA0028038,12020 S CENTRAL AVE,LOS ANGELES,CA,90059,33.92327,-118.25415,741
DAHENYEFTF007,FA0062208,3823 W SUNSET BLVD,LOS ANGELES,CA,90026,34.09147,-118.27918,742
DAHEUXU3HF035,FA0245213,516 W 6TH ST,LOS ANGELES,CA,90014,34.0482,-118.2548,743
DAHEZ0SZHF023,FA0239004,300 WORLD WAY,LOS ANGELES,CA,90045,33.944916,-118.407714,744
DAHGBEWYRF027,FA0009548,2619 N FIGUEROA ST,LOS ANGELES,CA,90065,34.08405,-118.2223,745
DAHGXAXBCF035,FA0241553,900 W MLK JR BLVD,LOS ANGELES,CA,90037,34.01,-118.29,746
DAHHC0CQBF023,FA0021042,3051 W 7TH ST,LOS ANGELES,CA,90005,34.05986,-118.29031,747
DAHHZ55G0F014,FA0038824,11125 S MAIN ST,LOS ANGELES,CA,90061,33.9345,-118.27396,748
DAHI0IOI1F023,FA0250545,11551 SANTA MONICA BLVD # RS1,LOS ANGELES,CA,90025,34.0452,-118.45345,749
DAHIZY2B2F006,FA0177430,8597 W PICO BLVD,LOS ANGELES,CA,90035,34.05391,-118.37828,750
DAHJFCCL0F014,FA0159309,9750 AIRPORT BLVD,LOS ANGELES,CA,90045,33.947889,-118.385561,751
DAHKCFOBRF006,FA0246000,4157 EAGLE ROCK BLVD STE 5,LOS ANGELES,CA,90065,34.121934,-118.225591,752
DAHKRZ5ZHF006,FA0041283,1457 E FLORENCE AVE STE #107,LOS ANGELES,CA,90001,33.97506,-118.24816,753
DAHLZPRDLF025,FA0051514,3622 W JEFFERSON BLVD,LOS ANGELES,CA,90016,34.02545,-118.33602,754
DAHMUDINGF006,FA0025919,801 W 83RD ST,LOS ANGELES,CA,90044,33.97,-118.3,755
DAHO2F3DIF035,FA0044284,1901 E NADEAU ST,LOS ANGELES,CA,90001,33.96748,-118.2378,756
DAHPQCAD3F023,FA0040803,508 S ROWAN AVE,LOS ANGELES,CA,90063,34.02998,-118.18712,757
DAHSR10SLF036,FA0166492,3522 W 8TH ST #B,LOS ANGELES,CA,90005,34.05743,-118.30746,758
DAHQN2IQMF006,FA0242776,11841 WILSHIRE BLVD,LOS ANGELES,CA,90025-6601,34.04781,-118.46303,759
DAHQY7BFKF033,FA0174217,4165 BEVERLY BLVD #104,LOS ANGELES,CA,90004,34.07644,-118.29999,760
DAHRW6ZZYF008,FA0250622,500 WORLD WAY,LOS ANGELES,CA,90045,33.94251,-118.405071,761
DAHRZGAVKF032,FA0251413,12740 CULVER BLVD # F,LOS ANGELES,CA,90066,33.985555,-118.425028,762
DAHSJNG06F035,FA0007617,6801 HOLLYWOOD BLVD STE 337,LOS ANGELES,CA,90028,34.10229,-118.33907,763
DAHT0OYWJF036,FA0136919,1132 N VERMONT AVE,LOS ANGELES,CA,90029,34.09184,-118.29154,764
DAHT5LVMXF033,FA0019587,3600 N BROADWAY,LOS ANGELES,CA,90031,34.07331,-118.20153,765
DAHT6Z1JDF035,FA0009877,801 S FIGUEROA ST STE 150,LOS ANGELES,CA,90015,34.04789,-118.26153,766
DAHTDYLXTF030,FA0046655,12835 W WASHINGTON BLVD,LOS ANGELES,CA,90066,33.99574,-118.43785,767
DAHVSTL35F006,FA0067616,314 E 1ST ST,LOS ANGELES,CA,90012,34.05008,-118.24071,768
DAHWFWSNPF006,FA0164003,3917 W 6TH ST,LOS ANGELES,CA,90020,34.06361,-118.30816,769
DAHWQEOC0F034,FA0256404,1555 W SUNSET BLVD STE B,LOS ANGELES,CA,90026,34.07667,-118.25669,770
DAHWW7UPSF023,FA0060801,5142 TRIGGS ST,LOS ANGELES,CA,90022,34.01079,-118.16249,771
DAHX0UYFDF033,FA0174182,5759 HOLLYWOOD BLVD,LOS ANGELES,CA,90028,34.10178,-118.31538,772
DAHXRPUZGF006,FA0036472,5901 HOLLYWOOD BLVD,LOS ANGELES,CA,90028,34.10176,-118.31885,773
DAHY7AMOEF007,FA0044914,201 N LOS ANGELES ST STE 22,LOS ANGELES,CA,90012,34.0529,-118.24156,774
DAHYHMES9F033,FA0049876,3700 W OLYMPIC BLVD STE #101,LOS ANGELES,CA,90019,34.05294,-118.31901,775
DAHYWMWB7F034,FA0058921,639 N LARCHMONT BLVD STE #102,LOS ANGELES,CA,90004,34.08288,-118.32397,776
DAHZQFVZ2F023,FA0036974,4326 W SUNSET BLVD,LOS ANGELES,CA,90029,34.09497,-118.28331,777
DAHZSKZJ0F004,FA0008390,7505 1/2 W SUNSET BLVD,LOS ANGELES,CA,90046,34.0982,-118.35308,778
DAI0OITBNF006,FA0057554,2701 W 8TH ST,LOS ANGELES,CA,90005,34.05787,-118.28439,779
DAI1URLDSF025,FA0221973,3109 W OLYMPIC BLVD STE B,LOS ANGELES,CA,90006,34.05277,-118.3036,780
DAI2I65SAF023,FA0248672,2134 W SUNSET BLVD # E,LOS ANGELES,CA,90026,34.07723,-118.26485,781
DAI30N0MIF006,FA0008377,10800 W PICO BLVD STE #308,LOS ANGELES,CA,90064,34.04054,-118.4272,782
DAI40CGLIF006,FA0245302,7201 S WESTERN AVE,LOS ANGELES,CA,90047,33.97433,-118.30917,783
DAI47K0MCF007,FA0026626,4350 MELROSE AVE,LOS ANGELES,CA,90029,34.08348,-118.29577,784
DAI546JNFF007,FA0059722,519 W MANCHESTER AVE STE 106,LOS ANGELES,CA,90044,33.96023,-118.28349,785
DAI59G4F1F030,FA0061639,2049 E CESAR E CHAVEZ AVE,LOS ANGELES,CA,90033,34.0487,-118.21167,786
DAI5WIDKLF036,FA0260219,11704 BARRINGTON CT,LOS ANGELES,CA,90049,34.06435,-118.46944,787
DAI6VYJ7EF006,FA0261687,6319 HOLLYWOOD BLVD,LOS ANGELES,CA,90028,34.10178,-118.327521,788
DAIARGD7XF023,FA0023760,7228 MELROSE AVE,LOS ANGELES,CA,90046,34.08339,-118.34668,789
DAI8FDUDMF004,FA0025306,575 S FAIRFAX AVE,LOS ANGELES,CA,90048,34.06531,-118.36147,790
DAI9SFIOPF014,FA0032544,698 S VERMONT AVE STE 109,LOS ANGELES,CA,90005,34.05979,-118.29154,791
DAI9YGC5IF024,FA0008556,4714 S MAIN ST,LOS ANGELES,CA,90037,34.00067,-118.27377,792
DAIAFKCFHF014,FA0179888,4163 W 3RD ST,LOS ANGELES,CA,90020,34.06908,-118.30443,793
DAIARVPSCF006,FA0052856,1520 N CAHUENGA BLVD STE #7,LOS ANGELES,CA,90028,34.09874,-118.32936,794
DAIBT8PGTF006,FA0021449,1544 N WESTERN AVE,LOS ANGELES,CA,90027,34.09954,-118.30908,795
DAIBVITK7F014,FA0249092,698 S VERMONT AVE STE 111,LOS ANGELES,CA,90005,34.05979,-118.29154,796
DAIBXCF80F007,FA0171541,500 WORLD WAY T5,LOS ANGELES,CA,90045,33.94251,-118.405071,797
DAICOWQC0F033,FA0203192,2812 E CESAR E CHAVEZ AVE,LOS ANGELES,CA,90033-3108,34.04428,-118.20248,798
DAIDJX5SRF044,FA0044683,1014 W MLK BLVD,LOS ANGELES,CA,90037,34.01077,-118.29205,799
DAIE0BOX2F007,FA0026513,3407 W 6TH ST STE 101-C,LOS ANGELES,CA,90020,34.06373,-118.29596,800
DAIGN8000F036,FA0179120,735 E 12TH ST STE 403,LOS ANGELES,CA,90021,34.03328,-118.25222,801
DAIFUP0DAF006,FA0136872,8720 S WESTERN AVE,LOS ANGELES,CA,90047,33.95886,-118.30891,802
DAIH1OB8ZF006,FA0179821,6201 HOLLYWOOD BLVD,LOS ANGELES,CA,90028,34.101797,-118.324613,803
DAII3RZVUF033,FA0058032,1037 BROXTON AVE,LOS ANGELES,CA,90024,34.061739,-118.446671,804
DAIIRLVKOF033,FA0071086,1123 N VINE ST STE 13,LOS ANGELES,CA,90038,34.091392,-118.326834,805
DAIJYHSCOF037,FA0049305,1075 N WESTERN AVE STE 108,LOS ANGELES,CA,90027,34.09027,-118.30959,806
DAIKCWYGBF007,FA0171644,1275 S UNION AVE,LOS ANGELES,CA,90015,34.04516,-118.27688,807
DAIKTX9WLF023,FA0180818,2921 LOS FELIZ BLVD STE 1,LOS ANGELES,CA,90039,34.12664,-118.26402,808
DAILZSBU4F031,FA0141597,8506 OSAGE AVE,LOS ANGELES,CA,90045,33.960895,-118.378613,809
DAIM0RLQGF013,FA0042515,5122 S AVALON BLVD,LOS ANGELES,CA,90011,33.99589,-118.265,810
DAIMAKAP0F007,FA0074300,698 S IROLO ST STE #111,LOS ANGELES,CA,90005,34.05974,-118.3008,811
DAIMFC7BCF014,FA0037153,626 S SPRING ST STE #A,LOS ANGELES,CA,90014,34.04516,-118.25148,812
DAIMV7OCHF027,FA0165481,3500 W 6th ST # 301,LOS ANGELES,CA,90020,34.06349,-118.29793,813
DAIMXNTCIF006,FA0015458,3131 N SAN FERNANDO RD,LOS ANGELES,CA,90065,34.115813,-118.246584,814
DAIN0ZM0QF014,FA0013001,3005 W 6TH ST,LOS ANGELES,CA,90020,34.06379,-118.28732,815
DAINCSFNVF006,FA0032525,1608 N CAHUENGA BLVD,LOS ANGELES,CA,90028,34.10009,-118.32937,816
DAINDZH5QF007,FA0262133,3250 WILSHIRE BLVD # 101A,LOS ANGELES,CA,90010-1457,34.06162,-118.29337,817
DAINMRNS9F033,FA0059038,2901 E WHITTIER BLVD,LOS ANGELES,CA,90023,34.03122,-118.20827,818
DAIP9BTWDF033,FA0042213,5636 HOLLYWOOD BLVD,LOS ANGELES,CA,90028,34.10156,-118.31278,819
DAIPAARNRF007,FA0137546,980 N LA CIENEGA BLVD,LOS ANGELES,CA,90069,34.08897,-118.37622,820
DAIQURZ9IF030,FA0055803,5656 SANTA MONICA BLVD STE STE A,LOS ANGELES,CA,90038,34.09043,-118.31326,821
DAIRNQP00F023,FA0223639,1401 W MANCHESTER AVE,LOS ANGELES,CA,90047,33.9601,-118.30071,822
DAIROXDG0F013,FA0070418,3101 W OLYMPIC BLVD,LOS ANGELES,CA,90006,34.05277,-118.30336,823
DAIRZGE00F007,FA0052067,4348 FOUNTAIN AVE,LOS ANGELES,CA,90029,34.09571,-118.28479,824
DAIT1QWKWF007,FA0261793,6015 W 3RD ST,LOS ANGELES,CA,90036,34.07005,-118.35125,825
DAITFKE1CF025,FA0251767,3625 W 6TH ST STE 120A,LOS ANGELES,CA,90020,34.06396,-118.30121,826
DAITZW4XFF023,FA0043985,11924 SANTA MONICA BLVD,LOS ANGELES,CA,90025,34.04152,-118.46031,827
DAIU20EXXF014,FA0030288,11301 W OLYMPIC BLVD,LOS ANGELES,CA,90064,34.03819,-118.44181,828
DAIWU2ZMZF033,FA0022125,400 WORLD WAY,LOS ANGELES,CA,90045,33.94221,-118.40701,829
DAIXE1G0NF007,FA0138818,6913 LA TIJERA BLVD,LOS ANGELES,CA,90045,33.97597,-118.37357,830
DAIYHQBMZF014,FA0030762,11151 S AVALON BLVD STE #107,LOS ANGELES,CA,90061,33.93392,-118.26524,831
DAIZUKXLLF007,FA0177724,5189 ALHAMBRA AVE,LOS ANGELES,CA,90032,34.073528,-118.172836,832
DAJ07WN8GF030,FA0008946,6051 HOLLYWOOD BLVD STE 101,LOS ANGELES,CA,90028,34.10203,-118.32191,833
DAJ0E8LZ1F040,FA0251766,3525 W 3RD ST,LOS ANGELES,CA,90020,34.0693,-118.29253,834
DAJ0FBTFTF014,FA0064000,10948 W PICO BLVD,LOS ANGELES,CA,90064,34.03881,-118.43084,835
DAJ5TGYRKF023,FA0248573,300 WORLD WAY # 337,LOS ANGELES,CA,90045,33.944916,-118.407714,836
DAJ0HVMG7F007,FA0167139,800 WILSHIRE BLVD,LOS ANGELES,CA,90017,34.0493,-118.25841,837
DAJ0MRYEPF013,FA0262422,7224 S VERMONT AVE,LOS ANGELES,CA,90044,33.97406,-118.2913,838
DAJ0WRWPWF014,FA0137689,56 WINDWARD AVE,LOS ANGELES,CA,90291,33.98728,-118.47263,839
DAJ0XXX1OF009,FA0244487,3250 W OLYMPIC BLVD #316 -317,LOS ANGELES,CA,90006,34.05244,-118.30766,840
DAJ1WU6INF006,FA0138954,735 S FIGUEROA ST #126,LOS ANGELES,CA,90017,34.04878,-118.26079,841
DAJ28GBMLF006,FA0242269,5505 S SAN PEDRO ST,LOS ANGELES,CA,90011-5133,33.99225,-118.27025,842
DAJ2OSQ1WF033,FA0070985,5453 HOLLYWOOD BLVD STE D,LOS ANGELES,CA,90027,34.10193,-118.30871,843
DAJ34AT9NF006,FA0176988,711 N MAIN ST # 102,LOS ANGELES,CA,90012,34.05862,-118.23772,844
DAJ3CSTIHF007,FA0023775,1850 N VERMONT AVE,LOS ANGELES,CA,90027,34.1046,-118.29161,845
DAJ4HRBMLF007,FA0024549,300 S GRAND AVE STE #LP41,LOS ANGELES,CA,90071,34.05283,-118.25116,846
DAJ6SOHPNF006,FA0013947,401 E 6TH ST,LOS ANGELES,CA,90014,34.04286,-118.24601,847
DAJ70SZE8F006,FA0261147,1689 EASTERN AVE,LOS ANGELES,CA,90063,34.06125,-118.17451,848
DAJ7HBLHVF008,FA0242792,5209 W SUNSET BLVD,LOS ANGELES,CA,90027,34.09828,-118.30363,849
DAJ8WMDBNF037,FA0176224,1202 FIRESTONE BLVD,LOS ANGELES,CA,90001,33.959964,-118.25375,850
DAJ9IG7BHF030,FA0067851,401 E 2ND ST,LOS ANGELES,CA,90013,34.04774,-118.23892,851
DAJA8GQUWF014,FA0039592,5402 S VERMONT AVE,LOS ANGELES,CA,90037,33.99298,-118.2913,852
DAJAGKU6OF014,FA0009001,347 E 1ST ST,LOS ANGELES,CA,90013,34.04999,-118.23983,853
DAJBPVNO4F040,FA0034881,4206 BEVERLY BLVD,LOS ANGELES,CA,90004,34.076132,-118.300675,854
DAJC4H88CF007,FA0008995,3914 WILSHIRE BLVD,LOS ANGELES,CA,90010,34.061525,-118.311728,855
DAJDSIWSWF014,FA0041765,700 N VERMONT AVE,LOS ANGELES,CA,90029,34.08396,-118.29152,856
DAJE0Q06FF033,FA0039883,5132 HOLLYWOOD BLVD,LOS ANGELES,CA,90027,34.10166,-118.30163,857
DAJELMBTBF014,FA0156816,5024 WHITTIER BLVD,LOS ANGELES,CA,90022-3117,34.020991,-118.161095,858
DAJENPRS5F030,FA0046628,1915 N HILLHURST AVE,LOS ANGELES,CA,90027,34.105887,-118.287644,859
DAJEVFC5VF006,FA0179893,726 W SLAUSON AVE,LOS ANGELES,CA,90044,33.989,-118.28666,860
DAJEVGVY8F040,FA0165259,3250 W OLYMPIC BLVD STE 309,LOS ANGELES,CA,90006,34.05244,-118.30766,861
DAJF5LXIOF027,FA0248501,400 S WESTERN AVE # 104,LOS ANGELES,CA,90020,34.067,-118.30888,862
DAJFD85MOF007,FA0008493,143 S BEVERLY DR,LOS ANGELES,CA,90012,34.05,-118.24,863
DAJG6KMBMF009,FA0057560,5703 N FIGUEROA ST,LOS ANGELES,CA,90042,34.1098,-118.19275,864
DAJH0BG9MF007,FA0171201,3500 W 8TH ST,LOS ANGELES,CA,90005,34.05746,-118.30698,865
DAJHTLQALF033,FA0061559,3925 W SUNSET BLVD,LOS ANGELES,CA,90029,34.097644,-118.277984,866
DAJHUNRC2F006,FA0066394,3401 N FIGUEROA ST,LOS ANGELES,CA,90065,34.08753,-118.21772,867
DAJHVPTUZF023,FA0257318,3100 EASTERN AVE,LOS ANGELES,CA,90032-2104,34.081198,-118.177866,868
DAJICYWP6F006,FA0042640,123 ASTRONAUT ELLISON ONIZUKA ST #308,LOS ANGELES,CA,90012,34.05019,-118.24211,869
DAJIYDDYWF013,FA0010479,1645 E 103RD ST,LOS ANGELES,CA,90002,33.9432,-118.24478,870
DAJJWBWR0F005,FA0241667,2215 S VERMONT AVE # 106,LOS ANGELES,CA,90007,34.03588,-118.29189,871
DAJK2GKM9F006,FA0002183,1664 E FLORENCE AVE,LOS ANGELES,CA,90001,33.97464,-118.24364,872
DAJK51L1YF007,FA0041761,3959 WILSHIRE BLVD STE A3-A5,LOS ANGELES,CA,90010,34.06203,-118.31329,873
DAJKT06WRF006,FA0040806,9103 S MAIN ST,LOS ANGELES,CA,90003,33.95321,-118.27421,874
DAJL0E6VOF023,FA0172122,7607 1/2 S MAIN ST,LOS ANGELES,CA,90003,33.97057,-118.27418,875
DAJLTTSYJF007,FA0249712,300 S GRAND AVE,LOS ANGELES,CA,90071,34.05283,-118.25116,876
DAJLZ1TIJF035,FA0239948,238 E 1ST ST,LOS ANGELES,CA,90012,34.05053,-118.24144,877
DAJMD8GEDF023,FA0251353,4205 S BROADWAY ST,LOS ANGELES,CA,90037,34.0072,-118.27843,878
DAJMIU14HF008,FA0239007,6601 SUNSET BLVD,LOS ANGELES,CA,90028,34.09807,-118.33344,879
DAJN40BHCF023,FA0003433,7855 W SUNSET BLVD,LOS ANGELES,CA,90046,34.09824,-118.36084,880
DAJNK3M9VF014,FA0041946,319 E 2ND ST STE 206,LOS ANGELES,CA,90012,34.04929,-118.24098,881
DAJOIY4N6F030,FA0065946,3207 LOS FELIZ BLVD,LOS ANGELES,CA,90039,34.12331,-118.2693,882
DAJONJ0THF014,FA0021493,812 N EVERGREEN AVE,LOS ANGELES,CA,90063,34.0475,-118.19779,883
DAJPB0OPDF023,FA0065052,8408 S BROADWAY,LOS ANGELES,CA,90003,33.96293,-118.27809,884
DAJP79RVYF007,FA0037221,8386 BEVERLY BLVD,LOS ANGELES,CA,90048,34.07589,-118.37295,885
DAJRE4IVPF023,FA0022819,11275 VENICE BLVD,LOS ANGELES,CA,90066,34.011916,-118.419465,886
DAJRHT0WVF014,FA0249120,100 S MAIN ST # 120,LOS ANGELES,CA,90012,34.05197,-118.24339,887
DAJSBU6ANF009,FA0174882,12746 W JEFFERSON BLVD,LOS ANGELES,CA,90066-7032,33.97469,-118.42896,888
DAJSD0LS9F033,FA0058785,5656 W MANCHESTER AVE,LOS ANGELES,CA,90045,33.95972,-118.38021,889
DAJTQKKHKF013,FA0055394,425 S WESTERN AVE E,LOS ANGELES,CA,90020,34.06635,-118.3093,890
DAJTQM0LGF014,FA0262037,8020 S VERMONT AVE,LOS ANGELES,CA,90044,33.96612,-118.29134,891
DAJVGEF3RF023,FA0044442,2900 COLORADO BLVD,LOS ANGELES,CA,90041,34.1426,-118.228373,892
DAJVORH6HF040,FA0159416,2716 W OLYMPIC BLVD # 102,LOS ANGELES,CA,90006,34.05243,-118.29218,893
DAJW0NOU1F030,FA0035128,10626 S WEIGAND AVE,LOS ANGELES,CA,90002,33.939091,-118.229533,894
DAJWB00WPF006,FA0167611,800 N WESTERN AVE,LOS ANGELES,CA,90029,34.08484,-118.30896,895
DAJWLBCYNF007,FA0029791,1730 W MANCHESTER AVE,LOS ANGELES,CA,90047,33.9598,-118.3078,896
DAJWNI8X3F043,FA0262100,1300 S SOTO ST SPC 11,LOS ANGELES,CA,90023-2617,34.02623,-118.21945,897
DAJXTSX07F036,FA0158111,930 S ROBERTSON BLVD #A,LOS ANGELES,CA,90035,34.0599,-118.38342,898
DAJX5ZGMEF036,FA0171769,5390 WHITTIER BLVD,LOS ANGELES,CA,90022-4032,34.019583,-118.154356,899
DAJXOSR0HF005,FA0244979,1271 1/2 N WILTON PL,LOS ANGELES,CA,90038,34.09437,-118.31381,900
DAJXRG0EJF023,FA0052252,861 N WESTERN AVE,LOS ANGELES,CA,90029,34.08587,-118.30953,901
DAJXSRMJFF014,FA0036753,3500 N BROADWAY,LOS ANGELES,CA,90031,34.073647,-118.203665,902
DAJYCF9OXF027,FA0158278,2201 S SAN PEDRO ST,LOS ANGELES,CA,90011,34.02483,-118.25946,903
DAJZME0SFF035,FA0164549,207 S VERMONT AVE,LOS ANGELES,CA,90004,34.0701,-118.29175,904
DAJZNRNNFF006,FA0003831,4650 FRANKLIN AVE,LOS ANGELES,CA,90027,34.10532,-118.2904,905
DAK0EW3ZOF035,FA0045207,10309 W OLYMPIC BLVD,LOS ANGELES,CA,90064,34.05271,-118.41729,906
DAK0KCQCYF023,FA0039003,526 N LA BREA AVE,LOS ANGELES,CA,90036,34.08109,-118.34385,907
DAK2D5JSNF039,FA0255993,5372 W ADAMS BLVD,LOS ANGELES,CA,90016,34.03221,-118.36019,908
DAK465USRF007,FA0250091,4645 VENICE BLVD,LOS ANGELES,CA,90019,34.04708,-118.33567,909
DAK5ZB0Y5F006,FA0007818,120 S LOS ANGELES ST,LOS ANGELES,CA,90012,34.05092,-118.24262,910
DAK6CZDA2F036,FA0262447,287 S ATLANTIC BLVD # A,LOS ANGELES,CA,90022-1734,34.03268,-118.15324,911
DAK6ICPPOF006,FA0239703,4107 S CENTRAL AVE,LOS ANGELES,CA,90011,34.00908,-118.25658,912
DAK6MZWY5F006,FA0052354,8000 W SUNSET BLVD # 112,LOS ANGELES,CA,90046,34.09783,-118.36466,913
DAK6WZBZEF007,FA0250501,10924 W PICO BLVD,LOS ANGELES,CA,90064,34.03911,-118.43021,914
DAK72XPPMF007,FA0006809,6801 HOLLYWOOD BLVD STE #416,LOS ANGELES,CA,90028,34.10229,-118.33907,915
DAK7EPDRGF025,FA0023389,123 ASTRONAUT ELLISON ONIZUKA ST STE 307,LOS ANGELES,CA,90012,34.05019,-118.24211,916
DAK7FR0F5F023,FA0071887,241 W FLORENCE AVE,LOS ANGELES,CA,90003,33.97495,-118.27749,917
DAKAC0LJ6F014,FA0158349,3701 W SUNSET BLVD,LOS ANGELES,CA,90026,34.09075,-118.27772,918
DAKAJG2QOF007,FA0224585,600 WORLD WAY # 681,LOS ANGELES,CA,90045,33.9427,-118.40223,919
DAKAJJJLSF033,FA0203855,310 E FLORENCE AVE,LOS ANGELES,CA,90003-2232,33.97462,-118.26931,920
DAKB4JJUCF033,FA0038964,4524 W JEFFERSON BLVD,LOS ANGELES,CA,90016,34.02497,-118.34529,921
DAKBEWZYIF006,FA0261281,6740 COMPTON BLVD,LOS ANGELES,CA,90001,33.97812,-118.247489,922
DAKBNV0F1F029,FA0138424,7160 MELROSE AVE,LOS ANGELES,CA,90046,34.0832,-118.34574,923
DAKBNZK16F006,FA0049086,500 S SPRING ST,LOS ANGELES,CA,90013,34.04697,-118.24989,924
DAKD0YZJTF007,FA0055036,1375 WESTWOOD BLVD,LOS ANGELES,CA,90024,34.05563,-118.44219,925
DAKDAXT0UF033,FA0158921,3410 N GLENDALE BLVD,LOS ANGELES,CA,90039,34.120393,-118.257883,926
DAKDBZYIRF039,FA0064556,2080 HILLHURST AVE,LOS ANGELES,CA,90027,34.10975,-118.28727,927
DAKDFM6V1F029,FA0257109,3123 BEVERLY BLVD,LOS ANGELES,CA,90057-1015,34.072263,-118.282815,928
DAKEFHYRBF007,FA0248388,639 E EL SEGUNDO BLVD,LOS ANGELES,CA,90059,33.916888,-118.263957,929
DAKESZPDWF006,FA0052642,4201 S BROADWAY,LOS ANGELES,CA,90037,34.0072,-118.27843,930
DAKEUX74ZF004,FA0020224,3450 W 6TH ST STE #110,LOS ANGELES,CA,90020,34.06323,-118.29702,931
DAKHDS6RIF014,FA0262275,2602 N BROADWAY BLVD,LOS ANGELES,CA,90031,34.07328,-118.2149,932
DAKHESEBLF007,FA0048222,908 S BARRINGTON AVE,LOS ANGELES,CA,90049,34.05323,-118.46487,933
DAKHZNVO0F014,FA0174754,818 WILSHIRE BLVD # B,LOS ANGELES,CA,90017,34.049666,-118.258912,934
DAKI7UGZEF031,FA0167748,1150 S BEVERLY DR,LOS ANGELES,CA,90035,34.05687,-118.3964,935
DAKIEJRRWF023,FA0022818,8500 W 3RD ST,LOS ANGELES,CA,90048,34.07306,-118.3767,936
DAKJ8ESMHF005,FA0248571,300 WORLD WAY # 335,LOS ANGELES,CA,90045,33.944916,-118.407714,937
DAKJJPOK0F036,FA0159301,9750 AIRPORT BLVD,LOS ANGELES,CA,90045,33.947889,-118.385561,938
DAKJNHOOWF044,FA0034380,5855 W CENTURY BLVD,LOS ANGELES,CA,90045,33.94541,-118.38325,939
DAKKJAT0LF014,FA0156189,11907 W OLYMPIC BLVD,LOS ANGELES,CA,90064-1115,34.03284,-118.45262,940
DAKKSJPAVF023,FA0009249,2511 W SUNSET BLVD,LOS ANGELES,CA,90026,34.07989,-118.26933,941
DAKKY7G2BF033,FA0240039,5101 SANTA MONICA BLVD STE 1,LOS ANGELES,CA,90029,34.090984,-118.300733,942
DAKLDN7DKF014,FA0056951,11318 S AVALON BLVD,LOS ANGELES,CA,90059,33.93179,-118.26506,943
DAKLOGS08F023,FA0031076,6660 W SUNSET BLVD STE C,LOS ANGELES,CA,90028,34.09781,-118.33562,944
DAKMOS0KRF023,FA0049290,8310 S VERMONT AVE,LOS ANGELES,CA,90044,33.96299,-118.29133,945
DAKN6IHCHF006,FA0021602,1426 S SOTO ST,LOS ANGELES,CA,90023,34.02354,-118.21973,946
DAKN8LMTAF026,FA0179334,5453 HOLLYWOOD BLVD # B,LOS ANGELES,CA,90027,34.10193,-118.30871,947
DAKO0OP4NF007,FA0159311,9750 AIRPORT BLVD,LOS ANGELES,CA,90045,33.947889,-118.385561,948
DAKOSKK4OF006,FA0248202,2701 W SUNSET BLVD,LOS ANGELES,CA,90026,34.08077,-118.27036,949
DAKP04OQLF007,FA0060454,888 WILSHIRE BLVD,LOS ANGELES,CA,90017,34.04984,-118.259176,950
DAKPMGBCZF025,FA0024370,3250 W OLYMPIC BLVD STE #307,LOS ANGELES,CA,90006,34.05244,-118.30773,951
DAKQ37UMPF023,FA0071766,4427 S AVALON BLVD,LOS ANGELES,CA,90011,34.003001,-118.265498,952
DAKQJQSD9F040,FA0071151,750 N VINE ST,LOS ANGELES,CA,90038,34.08471,-118.32642,953
DAKQRRUPWF007,FA0011652,6669 HOLLYWOOD BLVD,LOS ANGELES,CA,90028,34.10165,-118.33534,954
DAKQZGHCJF014,FA0048113,3303 W 6TH ST,LOS ANGELES,CA,90020,34.06368,-118.29424,955
DAKR9IS9VF023,FA0251200,6001 S HOOPER AVE,LOS ANGELES,CA,90001-1222,33.985059,-118.252303,956
DAKRWV9JWF006,FA0171640,2200 S CENTRAL AVE,LOS ANGELES,CA,90011-1239,34.02144,-118.25309,957
DAKS0EQLGF005,FA0056292,3575 WILSHIRE BLVD,LOS ANGELES,CA,90010,34.06182,-118.30203,958
DAKSFZMYSF006,FA0251717,3121 W OLYMPIC BLVD # 105,LOS ANGELES,CA,90004,34.05277,-118.30387,959
DAKV4I56WF006,FA0260230,191 S VERMONT AVE,LOS ANGELES,CA,90004-5904,34.07156,-118.29206,960
DAKWOZYG9F006,FA0158541,901 W OLYMPIC BLVD,LOS ANGELES,CA,90015-1327,34.04576,-118.26609,961
DAKWPVMLLF025,FA0249603,2700 COLORADO BLVD,LOS ANGELES,CA,90041,34.142485,-118.224383,962
DAKWQMTZSF044,FA0046939,5339 W CENTINELA AVE,LOS ANGELES,CA,90045,33.97718,-118.37587,963
DAKY77PXHF034,FA0176884,1391 SUNSET BLVD,LOS ANGELES,CA,90026,34.07369,-118.25154,964
DAKYC08NVF007,FA0255215,8048 W 3RD ST,LOS ANGELES,CA,90048-4307,34.07188,-118.36476,965
DAKZF67RDF027,FA0066538,1150 S BEVERLY DR,LOS ANGELES,CA,90035,34.05687,-118.3964,966
DAKZLMVX1F014,FA0257995,11955 W WASHINGTON BLVD STE 1,LOS ANGELES,CA,90066,33.997924,-118.421549,967
DAKZMLE36F007,FA0158885,9213 W PICO BLVD,LOS ANGELES,CA,90035,34.05542,-118.3922,968
DAKZMOQP0F014,FA0073234,3425 WHITTIER BLVD,LOS ANGELES,CA,90023,34.02751,-118.20001,969
DAL0BEMZXF030,FA0245567,735 FIGUEROA ST # 118,LOS ANGELES,CA,90017,34.04878,-118.26079,970
DAL1KYIGTF007,FA0222394,8420 BEVERLY BLVD,LOS ANGELES,CA,90048-3402,34.08,-118.38,971
DAL3XLHQWF023,FA0177067,1753 N HILLHURST AVE,LOS ANGELES,CA,90027,34.102868,-118.287665,972
DAL9GNKG1F014,FA0033010,3727 E 1ST ST,LOS ANGELES,CA,90063,34.03609,-118.1866,973
DAL4LC5SZF033,FA0179138,308 WESTWOOD PLZ STE A260,LOS ANGELES,CA,90024,34.07189,-118.44482,974
DAL5ERPNRF007,FA0065276,2200 N BROADWAY,LOS ANGELES,CA,90031,34.07352,-118.2177,975
DAL9ZOA0LF025,FA0242694,3625 W 6TH ST,LOS ANGELES,CA,90020,34.06396,-118.30121,976
DALAC7GA4F006,FA0203410,5700 SANTA MONICA BLVD,LOS ANGELES,CA,90038,34.090596,-118.313792,977
DALBB3HQQF014,FA0008272,4205 1/2 W 3RD ST,LOS ANGELES,CA,90020,34.06907,-118.30565,978
DALC9GLCAF035,FA0002958,5171 SANTA MONICA BLVD,LOS ANGELES,CA,90029,34.09098,-118.30198,979
DALCFFBMNF008,FA0138566,1601 SAWTELLE BLVD #101,LOS ANGELES,CA,90025,34.046956,-118.448992,980
DALDH0G0EF044,FA0013002,308 WESTWOOD PLZ 505,LOS ANGELES,CA,90024,34.07189,-118.44482,981
DALDI9GVQF033,FA0026865,5187 W SUNSET BLVD,LOS ANGELES,CA,90027,34.09828,-118.30307,982
DALDMBVHUF035,FA0175366,5831 FRANKLIN AVE,LOS ANGELES,CA,90028,34.10535,-118.31644,983
DALEM5FFLF008,FA0007666,5633 E WHITTIER BLVD,LOS ANGELES,CA,90022,34.018908,-118.149126,984
DALEUVPYFF023,FA0241215,101 W 5TH ST,LOS ANGELES,CA,90013,34.0469,-118.24862,985
DALG0BBYFF005,FA0072087,8411 LINCOLN BLVD,LOS ANGELES,CA,90045,33.96111,-118.42057,986
DALGICAM8F014,FA0137908,380 WORLD WAY #6C4 -30,LOS ANGELES,CA,90045,33.94354,-118.4085,987
DALGR0CU2F006,FA0160873,3253 BEVERLY BLVD,LOS ANGELES,CA,90057,34.072821,-118.284113,988
DALH8YR3TF025,FA0041134,1001 S VERMONT AVE STE 103,LOS ANGELES,CA,90006,34.05236,-118.29185,989
DALH9J0DYF007,FA0072994,4157 EAGLE ROCK BLVD STE 1&2,LOS ANGELES,CA,90065,34.1218,-118.22562,990
DALHC2TZAF027,FA0167311,9616 W PICO BLVD,LOS ANGELES,CA,90035,34.05497,-118.39811,991
DALHFDZQ1F014,FA0035922,500 S VIRGIL AVE STE 105,LOS ANGELES,CA,90020,34.06492,-118.28687,992
DALISKV41F006,FA0251000,610 S SERRANO AVE,LOS ANGELES,CA,90005-2847,34.06307,-118.30639,993
DALIXWDF5F040,FA0034259,350 S GRAND AVE STE #B-5,LOS ANGELES,CA,90071,34.05173,-118.2522,994
DALK1BW3ZF023,FA0163713,4854 HUNTINGTON DR S,LOS ANGELES,CA,90032,34.085781,-118.178336,995
DALK99NMEF006,FA0175006,725 S FIGUEROA ST # 131,LOS ANGELES,CA,90017,34.04886,-118.26071,996
DALLQ3RBJF006,FA0030817,6848 W SUNSET BLVD,LOS ANGELES,CA,90028,34.0978,-118.34025,997
DALLZQ6LBF004,FA0165836,1266 WESTWOOD BLVD,LOS ANGELES,CA,90024,34.05758,-118.442921,998
DALMCMVFCF006,FA0261980,7515 S CENTRAL AVE,LOS ANGELES,CA,90001,33.97144,-118.25659,999
DALMDL12EF023,FA0026847,2755 BEVERLY BLVD,LOS ANGELES,CA,90057,34.070741,-118.279211,1000
DALN1BSW7F006,FA0005494,5477 W ADAMS BLVD,LOS ANGELES,CA,90016,34.03,-118.34,1001
DALN9ABE0F027,FA0050228,7439 W SUNSET BLVD,LOS ANGELES,CA,90046,34.09821,-118.35227,1002
DALOPMO0YF009,FA0167513,861 N LA CIENGA BLVD,LOS ANGELES,CA,90069,34.08577,-118.37678,1003
DALOTCDVLF014,FA0062546,7963 MELROSE AVE,LOS ANGELES,CA,90046,34.083924,-118.363182,1004
DALQHC2VQF035,FA0012305,5656 SANTA MONICA BLVD STE #F,LOS ANGELES,CA,90038,34.090585,-118.313151,1005
DALRGRQ8YF008,FA0156119,3503 MOTOR AVE,LOS ANGELES,CA,90034-4806,34.026178,-118.408563,1006
DALRR3SHHF030,FA0043965,9779 W PICO BLVD,LOS ANGELES,CA,90035,34.0542,-118.40199,1007
DALRVE17UF014,FA0164711,4156 SANTA MONICA BLVD,LOS ANGELES,CA,90029,34.09107,-118.28323,1008
DALS00B0XF007,FA0042259,287 S ATLANTIC BLVD #A,LOS ANGELES,CA,90022,34.03268,-118.15324,1009
DALS0Y7Q8F007,FA0172188,1834 WESTWOOD BLVD,LOS ANGELES,CA,90025,34.04887,-118.43592,1010
DALSGSZ6ZF027,FA0165431,5210 BEVERLY BLVD,LOS ANGELES,CA,90004-3701,34.076065,-118.324131,1011
DALSV0EQLF023,FA0004436,3650 W MLK BLVD # 268A,LOS ANGELES,CA,90008,34.01143,-118.33654,1012
DALSZESJTF033,FA0056947,9401 S AVALON BLVD,LOS ANGELES,CA,90003,33.95087,-118.2653,1013
DALTDER0XF014,FA0068135,4141 S CENTINELA AVE,LOS ANGELES,CA,90066,33.99605,-118.42773,1014
DALTSIMCKF007,FA0137383,127 S SAN VICENTE BLVD,LOS ANGELES,CA,90048,34.07457,-118.37864,1015
DALUXZGIKF014,FA0030832,2049 SAWTELLE BLVD,LOS ANGELES,CA,90025,34.0396,-118.44308,1016
DALVNVX10F008,FA0224565,8369 W 3RD ST,LOS ANGELES,CA,90048,34.07307,-118.37242,1017
DALWAVBV0F006,FA0250948,3619 W OLYMPIC BLVD,LOS ANGELES,CA,90019-2028,34.05307,-118.31813,1018
DALX9026EF030,FA0138955,735 S FIGUEROA ST #114,LOS ANGELES,CA,90017,34.04878,-118.26079,1019
DALX9MYRXF006,FA0160679,2920 W TEMPLE ST,LOS ANGELES,CA,90026,34.07424,-118.27925,1020
DALXM8EMMF006,FA0060291,212 W 5TH ST,LOS ANGELES,CA,90013,34.04755,-118.25017,1021
DALY7P0XOF014,FA0252492,7407 1/2 MELROSE AVE,LOS ANGELES,CA,90046,34.08386,-118.3518,1022
DALYCHJ40F015,FA0005235,145 S VERMONT AVE,LOS ANGELES,CA,90004,34.07156,-118.29206,1023
DALYDYZE0F006,FA0170078,5950 NORMANDIE AVE,LOS ANGELES,CA,90044,33.98658,-118.30011,1024
DALYE7FEIF006,FA0259866,4726 HUNTINGTON DR,LOS ANGELES,CA,90032-1921,34.085209,-118.182098,1025
DALZLEAAIF007,FA0060549,3240 N FIGUEROA ST,LOS ANGELES,CA,90065,34.08532,-118.22034,1026
DALZOVYJ0F006,FA0062108,2706 N BROADWAY,LOS ANGELES,CA,90031,34.07357,-118.21411,1027
DAM04QRQSF015,FA0018277,1703 MARIACHI PLZ,LOS ANGELES,CA,90033,34.047559,-118.219357,1028
DAM0SDK5LF014,FA0170525,145 N LA BREA AVE UNIT B,LOS ANGELES,CA,90036,34.07488,-118.34438,1029
DAM0Z09ZKF033,FA0226524,1109 GLENDON AVE,LOS ANGELES,CA,90024,34.060524,-118.444395,1030
DAM10S1G2F014,FA0019185,5311 SANTA MONICA BLVD,LOS ANGELES,CA,90029,34.090933,-118.305053,1031
DAM1K8DUZF009,FA0252661,2215 WESTWOOD BLVD # D,LOS ANGELES,CA,90064,34.0436,-118.43161,1032
DAM3PKUL2F006,FA0177025,4259 W 3RD ST,LOS ANGELES,CA,90020,34.06922,-118.30753,1033
DAM9GUVSAF023,FA0175565,619 S ATLANTIC BLVD,LOS ANGELES,CA,90022,34.024361,-118.156363,1034
DAMA4MA5TF034,FA0242892,351 S BROADWAY,LOS ANGELES,CA,90013-1207,34.04992,-118.24921,1035
DAMANYCBVF007,FA0261457,5269 HOLLYWOOD BLVD,LOS ANGELES,CA,90027,34.10191,-118.30588,1036
DAMB6ZBOEF023,FA0071711,6168 WHITTIER BLVD,LOS ANGELES,CA,90022,34.01648,-118.13918,1037
DAMCUM6Y2F036,FA0071672,3562 S LA CIENEGA BLVD,LOS ANGELES,CA,90016,34.02234,-118.3721,1038
DAMCUWZG4F008,FA0261130,11285 SANTA MONICA BLVD,LOS ANGELES,CA,90025,34.04668,-118.44802,1039
DAMD8SCQVF014,FA0138554,4319 W SUNSET BLVD,LOS ANGELES,CA,90029,34.09499,-118.2827,1040
DAMDF2JVBF005,FA0242457,2622 N FIGUEROA ST,LOS ANGELES,CA,90065-1026,34.08394,-118.22214,1041
DAMDYDF6GF030,FA0142892,1201 W OLYMPIC BLVD,LOS ANGELES,CA,90015-3905,34.04717,-118.26931,1042
DAME0OUUTF023,FA0069578,1841 N WESTERN AVE,LOS ANGELES,CA,90027,34.10471,-118.30945,1043
DAME7PFXRF006,FA0249340,11901 W OLYMPIC BLVD,LOS ANGELES,CA,90064,34.03291,-118.45122,1044
DAMEODHO3F033,FA0241835,4874 SANTA MONICA BLVD,LOS ANGELES,CA,90029,34.090705,-118.295745,1045
DAMFAMPXHF006,FA0064805,2740 W OLYMPIC BLVD,LOS ANGELES,CA,90006,34.05244,-118.29312,1046
DAMFUKLTRF014,FA0059502,6333 W 3RD ST STE #412,LOS ANGELES,CA,90036,34.0722,-118.36037,1047
DAMGOVDQCF033,FA0039778,3760 S CENTINELA AVE,LOS ANGELES,CA,90066,34.0047,-118.43412,1048
DAMGT6HHYF014,FA0024371,440 S VERMONT AVE,LOS ANGELES,CA,90020,34.0659,-118.29143,1049
DAMHBGJWBF006,FA0036181,3660 BEVERLY BLVD,LOS ANGELES,CA,90004,34.07618,-118.28819,1050
DAMHKAAECF006,FA0226271,8462 S MAIN ST,LOS ANGELES,CA,90003-2904,33.96148,-118.2737,1051
DAMIECFVBF006,FA0055779,658 N BROADWAY,LOS ANGELES,CA,90012,34.05953,-118.23961,1052
DAMIGJNXFF027,FA0262202,318 S LA BREA AVE,LOS ANGELES,CA,90036-3526,34.06827,-118.34383,1053
DAMISRT3QF023,FA0036356,6315 S BROADWAY,LOS ANGELES,CA,90003,33.98191,-118.27851,1054
DAMJ8UGKGF035,FA0051756,10800 W PICO BLVD STE 316,LOS ANGELES,CA,90064,34.04054,-118.4272,1055
DAMJORMWBF006,FA0043009,735 S FIGUEROA ST STE 123,LOS ANGELES,CA,90017,34.04878,-118.26079,1056
DAMJZZE6YF014,FA0067163,329 E 1ST ST,LOS ANGELES,CA,90012,34.04995,-118.24,1057
DAMKS9TQEF007,FA0051275,115 S FAIRFAX AVE,LOS ANGELES,CA,90036,34.07374,-118.36176,1058
DAMMZQO5SF037,FA0163122,2716 W OLYMPIC BLVD STE 107,LOS ANGELES,CA,90006-2697,34.05243,-118.29218,1059
DAMNFJPADF007,FA0023904,7200 MELROSE AVE,LOS ANGELES,CA,90046,34.08339,-118.34633,1060
DAMNYKZNSF005,FA0045842,11727 W OLYMPIC BLVD,LOS ANGELES,CA,90064,34.03366,-118.449,1061
DAMNZDFP0F007,FA0028715,1801 W 8TH ST,LOS ANGELES,CA,90057,34.0537,-118.27466,1062
DAMOVACQNF014,FA0165007,10800 W PICO BLVD,LOS ANGELES,CA,90064,34.04054,-118.4272,1063
DAMOXSZYXF037,FA0008972,3748 S FIGUEROA ST,LOS ANGELES,CA,90007,34.01729,-118.28276,1064
DAMPS8SY1F007,FA0018676,530 RAMIREZ ST,LOS ANGELES,CA,90012,34.05464,-118.23187,1065
DAMR0RWRXF026,FA0175152,362 E 1ST ST,LOS ANGELES,CA,90012,34.04913,-118.23932,1066
DAMRCRB2LF034,FA0058955,6371 SELMA AVE,LOS ANGELES,CA,90028,34.099888,-118.329166,1067
DAMRNNMYKF033,FA0008702,1050 S HILL ST,LOS ANGELES,CA,90015,34.04038,-118.25933,1068
DAMRSP42WF007,FA0032189,201 N LOS ANGELES ST STE 22-A,LOS ANGELES,CA,90012,34.0529,-118.24156,1069
DAMSEL0EJF006,FA0070292,2800 S GRAND AVE,LOS ANGELES,CA,90007-3303,34.024,-118.27373,1070
DAMSZIZU7F009,FA0021485,8215 S BROADWAY,LOS ANGELES,CA,90003,33.96458,-118.27848,1071
DAMTBBXPXF007,FA0041567,4110 S FIGUEROA ST,LOS ANGELES,CA,90037,34.00881,-118.28252,1072
DAMUXYBRUF027,FA0139077,659 S FLOWER ST,LOS ANGELES,CA,90017-2805,34.04907,-118.2587,1073
DAMVNZDJIF014,FA0044268,11758 SAN VICENTE BLVD,LOS ANGELES,CA,90049,34.05286,-118.46807,1074
DAMVSQUB9F029,FA0137355,258 W MANCHESTER AVE,LOS ANGELES,CA,90003,33.95993,-118.27767,1075
DAMWBSIV4F007,FA0074117,201 LOS ANGELES ST UNIT 102,LOS ANGELES,CA,90012,34.0529,-118.24156,1076
DAMXD0GZHF007,FA0224113,314 N WESTERN AVE,LOS ANGELES,CA,90004,34.07666,-118.30905,1077
DAMXNR9ABF033,FA0045067,7207 S AVALON BLVD,LOS ANGELES,CA,90003,33.97449,-118.265329,1078
DAMXSFW7IF029,FA0045917,7900 W SUNSET BLVD,LOS ANGELES,CA,90046,34.09788,-118.36194,1079
DAMYTJ3DMF014,FA0177226,300 S HOBART BLVD # 100,LOS ANGELES,CA,90020,34.06874,-118.30519,1080
DAMZ6TQJBF033,FA0262105,1101 S SAN PEDRO ST STE F,LOS ANGELES,CA,90015-2465,34.03523,-118.25241,1081
DAMZXOKSPF014,FA0177221,6009 N FIGUEROA ST,LOS ANGELES,CA,90042,34.1114,-118.18953,1082
DAN0DJVP0F029,FA0165677,700 EXPOSITION PARK DR,LOS ANGELES,CA,90007,34.01561,-118.28665,1083
DAN40NOUOF014,FA0171320,1954 HILLHURST AVE,LOS ANGELES,CA,90027,34.10698,-118.28724,1084
DAN7BANYZF014,FA0004583,10420 S MAIN ST,LOS ANGELES,CA,90003,33.94132,-118.27371,1085
DAN7MSYXJF023,FA0010271,701 S VERMONT AVE,LOS ANGELES,CA,90005,34.05856,-118.29171,1086
DAN8OLWPHW021,FA0241066,1500 E OLYMPIC BLVD # 1-37,LOS ANGELES,CA,90021,34.03032,-118.24261,1087
DAN8RLUMOF033,FA0042715,4373 S VERMONT AVE,LOS ANGELES,CA,90037,34.0043,-118.29175,1088
DAN8VENUKF023,FA0069554,4352 MELROSE AVE,LOS ANGELES,CA,90029,34.08348,-118.29577,1089
DAN8WYRGQF035,FA0138674,3607 TROUSDALE PKWY,LOS ANGELES,CA,90089,34.02013,-118.28566,1090
DAN9UYJVOF033,FA0261886,113 E 9TH AVE,LOS ANGELES,CA,90015-1744,34.04142,-118.25466,1091
DANB1DNDPF033,FA0141187,650 N BRONSON AVE,LOS ANGELES,CA,90004-1404,34.08291,-118.31774,1092
DANBI0WVBF026,FA0041856,936 BROXTON AVE,LOS ANGELES,CA,90024,34.062961,-118.446831,1093
DANDGI0X9F009,FA0223052,301 S WESTERN AVE # 101,LOS ANGELES,CA,90020,34.06846,-118.30954,1094
DANDHAY29F032,FA0073884,4605 BEVERLY BLVD,LOS ANGELES,CA,90004,34.076411,-118.309582,1095
DANELHR1NF029,FA0044825,710 E COMMERCIAL ST,LOS ANGELES,CA,90012,34.05269,-118.23267,1096
DANET0RBXF007,FA0005722,8343 LINCOLN BLVD,LOS ANGELES,CA,90045,33.96188,-118.42122,1097
DANFXWZ0CF006,FA0171963,5706 SANTA MONICA BLVD,LOS ANGELES,CA,90038,34.0906,-118.31392,1098
DANG5CCLHF023,FA0044981,8530 S FIGUEROA ST,LOS ANGELES,CA,90003,33.96094,-118.28261,1099
DANGBDBARF023,FA0225087,2747 BEVERLY BLVD,LOS ANGELES,CA,90057,34.07068,-118.27907,1100
DANIC5PVOF033,FA0142677,10201 W PICO BLVD,LOS ANGELES,CA,90064-2606,34.04994,-118.41129,1101
DANJRDS0OF007,FA0164067,11903 W OLYMPIC BLVD,LOS ANGELES,CA,90064,34.03291,-118.45122,1102
DANK0TUGOF036,FA0167281,6201 HOLLYWOOD BLVD # 128,LOS ANGELES,CA,90028-5305,34.101797,-118.324613,1103
DANKBUOESF014,FA0137949,7370 SUNSET BLVD,LOS ANGELES,CA,90046,34.09762,-118.35085,1104
DANKVURUCF033,FA0061522,2201 N BROADWAY,LOS ANGELES,CA,90031,34.0737,-118.2174,1105
DANKYDINJF006,FA0177230,419 W 7TH ST,LOS ANGELES,CA,90014,34.04629,-118.25477,1106
DANLASPCEF030,FA0163114,3377 WILSHIRE BLVD STE 103,LOS ANGELES,CA,90010,34.06193,-118.29742,1107
DANMBTKYNF006,FA0158730,2638 CRENSHAW BLVD,LOS ANGELES,CA,90016,34.03137,-118.334903,1108
DANMWHSFAF023,FA0136753,609 N LA BREA AVE,LOS ANGELES,CA,90036,34.0822,-118.34434,1109
DANPBBFGYF006,FA0250194,359 E 1ST ST,LOS ANGELES,CA,90012,34.04952,-118.23937,1110
DANPTQ5QHF014,FA0056830,8500 W OLYMPIC BLVD,LOS ANGELES,CA,90035,34.05926,-118.37666,1111
DANPZSOX8F030,FA0221513,9769 W PICO BLVD,LOS ANGELES,CA,90066,34.05431,-118.40168,1112
DANS0JXEEF033,FA0243019,11707 W WASHINGTON PL,LOS ANGELES,CA,90066,34.004422,-118.421582,1113
DANS0R6T0F027,FA0037468,4141 WHITTIER BLVD,LOS ANGELES,CA,90023,34.024142,-118.181114,1114
DANSFKV0QF033,FA0177222,1234 BELLEVUE AVE,LOS ANGELES,CA,90026,34.0676,-118.25206,1115
DANT49BV2F029,FA0252477,104 N AVENUE 56 2ND FL,LOS ANGELES,CA,90042-4112,34.10918,-118.19452,1116
